brand,borough,name,formatted_address,lat,lng,postcode
PerfectTed,City of London,PerfectTed,"89.5 Worship St, London EC2A 2BF, United Kingdom",51.5221052,-0.08225140000000000,EC2A 2BF
OMGTea,City of London,OMGTEA,"PLATF9RM, Hove Town Hall, Tisbury Rd, Hove BN3 3BQ, United Kingdom",50.8284022,-0.1701575,BN3 3BA
My Matcha & Coffee,Camden,My Matcha & Coffee,"54-56 Camden Lock Pl, London NW1 8AF, United Kingdom",51.5411732,-0.1464697,NW1 8AF
East & Tea.Co,Sutton,East & Tea.Co,"208 High St, Surrey SM1 1NU, United Kingdom",51.366265,-0.1941236,SM1 1NU
Blank Street Coffee,City of London,Blank Street Coffee,"87 Old Broad St, London EC2N 1BG, United Kingdom",51.5166943,-0.0836355,EC2N 1BG
Blank Street Coffee,City of London,Blank Street Coffee,"2a Eastcheap, London EC3M 1BN, United Kingdom",51.510548,-0.0855779,EC3M 1AA
Blank Street Coffee,City of London,Blank Street Coffee,"81 Gracechurch St, London EC3V 0AU, United Kingdom",51.5124744,-0.08448500000000000,EC3V 0AS
Blank Street Coffee,City of London,Blank Street Coffee,"138 Cheapside, London EC2V 6BJ, United Kingdom",51.5147054,-0.09631770000000000,EC2V 6BJ
Blank Street Coffee,City of London,Blank Street Coffee,"7 Ludgate Circus, London EC4Y 1DE, United Kingdom",51.5140062,-0.1047098,EC4Y 1DE
Blank Street Coffee,City of London,Blank Street Coffee,"Canada Place, Crossrail Pl, London E14 5FU, United Kingdom",51.5056652,-0.016511,E14 5FU
Blank Street Coffee,City of London,Blank Street Coffee,"101 Moorgate, London EC2Y 9AA, United Kingdom",51.5179757,-0.0887051,EC2Y 9AA
Blank Street Coffee,City of London,Blank Street Coffee,"16 Norton Folgate, London E1 6DB, United Kingdom",51.5212009,-0.0783813,E1 6DB
Blank Street Coffee,City of London,Blank Street Coffee,"1 Canada Square, London E14 5AB, United Kingdom",51.5049286,-0.0195496,E14 5AH
Blank Street Coffee,City of London,Blank Street Coffee,"3 Redchurch St, London E2 7DJ, United Kingdom",51.5243603,-0.07684920000000000,E2 7DJ
Blank Street Coffee,City of London,Blank Street Coffee,"80 Finsbury Pavement, London EC2Y 9AU, United Kingdom",51.5200984,-0.0872125,EC2Y 9AU
Blank Street Coffee,City of London,Blank Street Coffee,"80 Kingsway, London WC2B 6AG, United Kingdom",51.5171561,-0.1198163,WC2B 6AA
Blank Street Coffee,City of London,Blank Street Coffee,"2, 65-72 Strand, London WC2N 5LR, United Kingdom",51.5098087,-0.1226743,WC2N 5LR
Blank Street Coffee,City of London,Blank Street Coffee,"22 Noel St, London W1F 8GS, United Kingdom",51.51508930000000,-0.1359465,W1F 8GS
Blank Street Coffee,City of London,Blank Street Coffee,"110 New Oxford St, London WC1A 1HD, United Kingdom",51.5167124,-0.1291228,WC1A 1HH
Blank Street Coffee,City of London,Blank Street Coffee,"44 Charlotte St., London W1T 2NR, United Kingdom",51.5195288,-0.135575,W1T 2NR
Blank Street Coffee,City of London,Blank Street Coffee,"300 Pentonville Rd, London N1 9NR, United Kingdom",51.53090630000000,-0.1221536,N1 9NR
Blank Street Coffee,City of London,Blank Street Coffee,"1 Old Quebec St, London W1H 7AF, United Kingdom",51.5139019,-0.1580137,W1H 7AF
Blank Street Coffee,City of London,Blank Street Coffee,"4 Upper St, London N1 0PQ, United Kingdom",51.5335802,-0.1060053,WC2H 9NY
Blank Street Coffee,City of London,Blank Street Coffee,"315 Regent St., London W1B 2HW, United Kingdom",51.5171792,-0.1429752,W1B 2HT
Blank Street Coffee,City of London,Blank Street Coffee,"14 Curzon St, London W1J 5HN, United Kingdom",51.5068957,-0.1472317,W1J 5HN
Blank Street Coffee,City of London,Blank Street Coffee,"136 Charing Cross Rd, London WC2H 0LA, United Kingdom",51.5153802,-0.1299112,WC2H 0LA
Blank Street Coffee,City of London,Blank Street Coffee,"Unit 47A Pancras Rd, London N1C 4QP, United Kingdom",51.5305967,-0.1252307,N1C 4BS
Blank Street Coffee,City of London,Blank Street Coffee,"10 Chalk Farm Rd, London NW1 8AG, United Kingdom",51.5419277,-0.1458124,NW1 8AH
Blank Street Coffee,City of London,Blank Street Coffee,"181 Camden High St, London NW1 7JY, United Kingdom",51.5386256,-0.1425628,NW1 7JY
Blank Street Coffee,City of London,Blank Street Coffee,"Circus Rd W, Nine Elms, London SW8 5BN, United Kingdom",51.48014800000000,-0.1433074,SW11 8DD
Blank Street Coffee,City of London,Blank Street Coffee,"159 Praed St, Tyburnia, London W2 1RL, United Kingdom",51.5160142,-0.174645,W2 1RL
Blank Street Coffee,City of London,Blank Street Coffee,"64 St John's Rd, London SW11 1PS, United Kingdom",51.4619492,-0.1677808,SW11 1PR
Blank Street Coffee,City of London,Blank Street Coffee,"Unit 1 South Kensington Station Arcade, South Kensington, London SW7 2NA, United Kingdom",51.4941275,-0.1740792,SW7 2NA
Blank Street Coffee,City of London,Blank Street Coffee,"59 Notting Hill Gate, London W11 3JS, United Kingdom",51.5089213,-0.1964502,W11 3JS
Blank Street Coffee,Barking and Dagenham,Blank Street Coffee,"119 Putney High St, London SW15 1SU, United Kingdom",51.4624894,-0.216082,SW15 1SU
Blank Street Coffee,Barking and Dagenham,Black Sheep Coffee,"Unit GL6A, Liberty Shopping Centre, London RM1 3RL, United Kingdom",51.5778748,0.1831358,RM1 3RL
Blank Street Coffee,Barking and Dagenham,Black Sheep Coffee,"45 Bank St, London E14 5NY, United Kingdom",51.5030932,-0.0185881,E14 5NY
Blank Street Coffee,Barking and Dagenham,Blank Street Coffee,"67 King's Rd, London SW3 4NT, United Kingdom",51.4894328,-0.1635892,SW3 4NT
Blank Street Coffee,Barking and Dagenham,Black Sheep Coffee,"8 S Colonnade, London E14 4PZ, United Kingdom",51.50471,-0.0219924,E14 4PZ
Blank Street Coffee,Barking and Dagenham,Blank Street Coffee,"60 The Broadway, London W5 5LS, United Kingdom",51.5136037,-0.3030111,W5 5LS
Blank Street Coffee,Barking and Dagenham,Blank Street Coffee,"Upper Ground Floor, The Power Station, Turbine Hall B, Nine Elms, London SW11 8BZ, United Kingdom",51.4813998,-0.1439313,SW8 5BN
Blank Street Coffee,Barking and Dagenham,Blank Street Coffee,"27 Queensway, London W2 4QJ, United Kingdom",51.5110831,-0.1873409,W2 4QJ
Blank Street Coffee,Barking and Dagenham,Blank Street Coffee,"Unit 1, Gloucester Road Station, 128 Gloucester Rd, South Kensington, London SW7 4SF, United Kingdom",51.4942686,-0.1828493,SW7 4SF
Blank Street Coffee,Barnet,Blank Street Coffee,"Ariel Way, London W12 7JQ, United Kingdom",51.5071758,-0.2212492,W12 7GB
Blank Street Coffee,Greenwich,640East,"Montgomery Square, Upper Bank St, London E14 5JJ, United Kingdom",51.5034132,-0.0169335,E14 4HJ
Blank Street Coffee,Greenwich,Chai Guys Canary Wharf,"1, Canada Place, Crossrail Pl, London E14 5HX, United Kingdom",51.5051649,-0.016398,E14 5GL
WatchHouse,Greenwich,WatchHouse Cabot Place,"RS320, Cabot Sq, London E14 4QJ, United Kingdom",51.5052594,-0.0202939,E14 4QT
Blank Street Coffee,Lambeth,Blank Street,"Circus Rd W, Nine Elms UG-033A, London SW11 8DD, United Kingdom",51.48104260000000,-0.1439516,SW11 8DQ
WatchHouse,City of London,WatchHouse Bishopsgate,"100 Bishopsgate, London EC2M 1GT, United Kingdom",51.5153323,-0.080412,EC3A 8BY
WatchHouse,City of London,WatchHouse St. Mary Axe,"70 St Mary Axe, London EC3A 8BG, United Kingdom",51.5154839,-0.0790702,EC3A 8BG
WatchHouse,City of London,WatchHouse Fenchurch Atrium,"30 Fenchurch St, London EC3M 3BD, United Kingdom",51.5112611,-0.0822244,EC3M 3BD
WatchHouse,City of London,WatchHouse Fenchurch Street,"10 Rood Ln, London EC3M 1HS, United Kingdom",51.51122850000000,-0.08293100000000000,EC3M 1HS
WatchHouse,City of London,WatchHouse Covent Garden,"28-29 Southampton St, London WC2E 7PG, United Kingdom",51.51113490000000,-0.1223629,WC2E 7JA
WatchHouse,City of London,WatchHouse Tower Bridge,"37 Shad Thames, London SE1 2NJ, United Kingdom",51.5037368,-0.0746038,SE1 2NJ
WatchHouse,City of London,WatchHouse Fetter Lane,"92 Fetter Ln, London EC4A 1EP, United Kingdom",51.5167357,-0.109173,EC4A 1EP
WatchHouse,City of London,WatchHouse Spitalfields,"139 Commercial St, London E1 6EB, United Kingdom",51.5208753,-0.0752577,E1 6EB
WatchHouse,City of London,WatchHouse Seven Dials,"7 Upper St Martin's Ln, London WC2H 9DL, United Kingdom",51.51287140000000,-0.1272862,WC2H 9DL
WatchHouse,City of London,WatchHouse Somerset House,"Somerset House East Wing, London WC2R 1LA, United Kingdom",51.5113789,-0.1168724,WC2R
WatchHouse,Barking and Dagenham,WatchHouse Hampstead Heath,"65 S End Rd, London NW3 2QB, United Kingdom",51.5558438,-0.1667466,NW3 2QB
WatchHouse,Barking and Dagenham,WatchHouse Belsize Park,"183 Haverstock Hill, Belsize Park, London NW3 4QS, United Kingdom",51.5502777,-0.1649473,NW3 4QS
WatchHouse,Barking and Dagenham,WatchHouse Marylebone,"32-34 New Cavendish St, London W1G 8UE, United Kingdom",51.5187268,-0.1502809,W1G 8UB
WatchHouse,Barking and Dagenham,WatchHouse Hanover,"2-3, Medici Court, London W1S 1BR, United Kingdom",51.51372690000000,-0.1451025,W1S
WatchHouse,Barking and Dagenham,WatchHouse Roastery,"36 Maltby St, London SE1 3PA, United Kingdom",51.49968700000000,-0.0764098,SE1 3GP
WatchHouse,Barking and Dagenham,WatchHouse Marble Arch,"60 Seymour St, London W1H 7JN, United Kingdom",51.5144285,-0.1608803,W1H 7JN
WatchHouse,Barking and Dagenham,WatchHouse Bermondsey,"199 Bermondsey St, London SE1 3UW, United Kingdom",51.4980106,-0.08125060000000000,SE1 3UW
WatchHouse,Barking and Dagenham,WatchHouse Bath,"8-10 Old Bond St, Bath BA1 1BW, United Kingdom",51.3827286,-2.36093,BA1 1BP
WatchHouse,Barking and Dagenham,WatchHouse Fitzrovia,"56 Wells St, London W1T 3PT, United Kingdom",51.5178642,-0.1390368,W1T
WatchHouse,Barking and Dagenham,WatchHouse Battersea Power Station,"52 Electric Blvd, Nine Elms, London SW11 8BJ, United Kingdom",51.479587,-0.1441723,SW11 8BJ
Pret A Manger,City of London,Pret A Manger,"Unit 1 City Rd, Oliver's Yard, London EC1Y 1HQ, United Kingdom",51.5244083,-0.0872689,EC1Y 2AL
Pret A Manger,City of London,Pret a Manger,"17 City Rd, London EC1Y 1AG, United Kingdom",51.52271410000000,-0.0870295,EC1Y 1AG
Pret A Manger,City of London,Pret A Manger,"Unit LG4, 100 Liverpool St, London EC2M 2RH, United Kingdom",51.5187,-0.0827,EC2M 2QS
Pret A Manger,City of London,Pret A Manger,"19-20 Liverpool St, London EC2M 7PD, United Kingdom",51.5173614,-0.08252750000000000,EC2M 7PD
Pret A Manger,City of London,Pret A Manger,"133 Houndsditch, London EC3A 7BX, United Kingdom",51.5152008,-0.078125,EC3A 7BX
Pret A Manger,City of London,Pret A Manger,"1 Three Quays Walk, Lower Thames St, London EC3R 6AH, United Kingdom",51.5081307,-0.0792881,EC3R 6AH
Pret A Manger,City of London,Pret A Manger,"165-166 London Wall, London EC2M 5QD, United Kingdom",51.51738660000000,-0.0879517,EC2M 5QD
Pret A Manger,City of London,Pret A Manger,"St Broadgate Link, Liverpool, Unit 58 Link Station, London EC2M 7PY, United Kingdom",51.5189235,-0.0813757,EC2M 7PY
Pret A Manger,City of London,Pret A Manger,"Eagle House, 161 City Rd, London EC1V 1NR, United Kingdom",51.5279873,-0.0894455,EC1V 1NR
Pret A Manger,City of London,Pret A Manger,"85 Aldgate High St, London EC3N 1LH, United Kingdom",51.51363,-0.07623000000000000,EC3N 1LH
Pret A Manger,City of London,Pret A Manger,"Island, Harbour Exchange Square Millwall Dock, Docklands, Unit CGN, 19, London E14 9GE, United Kingdom",51.49854,-0.01583,E14 9EA
Pret A Manger,City of London,Pret A Manger,"110 Fetter Ln, London EC4A 1ES, United Kingdom",51.515906,-0.109562,EC4A 1ES
Pret A Manger,City of London,Pret A Manger,"140 Aldersgate St, Barbican, London EC1A 4HY, United Kingdom",51.5197009,-0.09744930000000000,EC1A 4HY
Pret A Manger,City of London,Pret A Manger,"1 Commercial St, London E1 6BF, United Kingdom",51.5155828,-0.0728277,E1 6BF
Pret A Manger,City of London,Pret A Manger,"11-15 Borough High St, London SE1 9SE, United Kingdom",51.5055355,-0.0887448,SE1 9SE
Pret A Manger,City of London,Pret A Manger,"Bank Street Unit 13, RT3, London E14 5NY, United Kingdom",51.50312110000000,-0.0185153,E14 5NY
Pret A Manger,City of London,Pret A Manger,"London Bridge Station, St Thomas St, Railway Approach, London SE1 9SP, United Kingdom",51.5046203,-0.0859853,SE1 9SP
Pret A Manger,City of London,Pret A Manger,"344 Sun St Passage, London EC2M 7PY, United Kingdom",51.518376,-0.082788,EC2M 7PY
Pret A Manger,City of London,Pret A Manger,"Units 1 and 2, 201 Bishopsgate, London EC2M 3AB, United Kingdom",51.5207517,-0.0792869,EC2M 3AB
Pret A Manger,City of London,Pret A Manger,"Unit 1, Capital House, 14-16 Lombard St, London EC3V 9AU, United Kingdom",51.5127545,-0.0876595,EC3V 9LJ
Pret A Manger,City of London,Pret A Manger,"Building, 62-63 Fenchurch Street Vitro, London EC3M 4AQ, United Kingdom",51.5121214,-0.079606,EC3M 4BA
Pret A Manger,City of London,Pret A Manger,"Unit 1, City Shopping Centre, Whitecross St, London EC1Y 8NX, United Kingdom",51.5220224,-0.09245510000000000,EC1Y 8TD
Pret A Manger,City of London,Pret A Manger,"Unit 2, 1 Finsbury Square, London EC2A 1AE, United Kingdom",51.5207044,-0.0875261,EC2A 1AE
Pret A Manger,City of London,Pret A Manger,"28 Fenchurch Ave, London EC3M 5AD, United Kingdom",51.5129335,-0.0814053,EC3M 5AD
Pret A Manger,City of London,Pret A Manger,"Cabot Square Canary Wharf Unit 320, (RT1, Cabot Place, London E14 4QS, United Kingdom",51.5051715,-0.0201902,E14 4QT
Pret A Manger,City of London,Pret A Manger,"43 King William St, London EC4R 9AN, United Kingdom",51.5098409,-0.0866542,EC4R 9AN
Pret A Manger,City of London,Pret A Manger,"1 Canada Square, Ds7 E14 4QS, United Kingdom",51.5051475,-0.0195234,E14 5AH
Pret A Manger,City of London,Pret A Manger,"19 Eastcheap, London EC3M 1BU, United Kingdom",51.51088790000000,-0.08441840000000000,EC3M 1BU
Pret A Manger,City of London,Pret A Manger,"3 America Square, London EC3N 2LR, United Kingdom",51.51152460000000,-0.0756604,EC3N 2LR
Pret A Manger,City of London,Pret A Manger,"1 Great Tower St, London EC3R 5AA, United Kingdom",51.5102386,-0.0826601,EC3R 5AA
Pret A Manger,City of London,Pret A Manger,"7 Westferry Circus, London E14 4HD, United Kingdom",51.506211,-0.0280693,E14 4HD
Pret A Manger,City of London,Pret A Manger,"125 Old Broad St, London EC2N 1DW, United Kingdom",51.5148276,-0.0861277,EC2N
Pret A Manger,City of London,Pret A Manger,"Unit 1, 200 Aldersgate St, London EC1A 4HD, United Kingdom",51.5171995,-0.09698360000000000,EC1A 4HD
Pret A Manger,City of London,Pret A Manger,"143, 171 Moorgate, London EC2M 6XB, United Kingdom",51.5187839,-0.0882404,EC2M 6XB
Pret A Manger,City of London,Pret A Manger,"Nexus Place, 24 Farringdon St, London EC4A 4AB, United Kingdom",51.5157599,-0.1042396,EC4A 4AB
Pret A Manger,City of London,Pret A Manger,"Retail Unit 1 Thomas More Square Retail Unit 1, London E1W 1YN, United Kingdom",51.5081286,-0.06816990000000000,E1W 1YN
Pret A Manger,City of London,Petit Pret,"Blackfriars Passage, London EC4V 4DD, United Kingdom",51.5116636,-0.10387,EC4V 4DD
Pret A Manger,City of London,Pret A Manger,"Unit 2, 5 Aldermanbury Square, Barbican, London EC2V 7HR, United Kingdom",51.5171235,-0.0933459,EC2V 7HR
Pret A Manger,City of London,Pret A Manger,"140 Aldersgate St, Barbican, London EC1A 4HY, United Kingdom",51.5198609,-0.0978226,EC1A 4HY
Pret A Manger,City of London,Pret A Manger,"Unit C, Fountain House, 125-135 Fenchurch St, London EC3M 5DJ, United Kingdom",51.5118744,-0.08166180000000000,EC3M 5DJ
Pret A Manger,City of London,Pret A Manger,"141 Cheapside, London EC2V 6BJ, United Kingdom",51.5145692,-0.0960176,EC2V 6BJ
Pret A Manger,City of London,Pret A Manger,"21 Mansell St, London E1 8AA, United Kingdom",51.51379290000000,-0.0732797,E1 8AA
Pret A Manger,City of London,Pret A Manger,"55 Bishopsgate, London EC2N 3AS, United Kingdom",51.5153832,-0.0826456,EC2N 3AS
Pret A Manger,City of London,Pret A Manger,"90 Queen St, London EC4N 1SA, United Kingdom",51.5134092,-0.0916845,EC2V 6EE
Pret A Manger,City of London,Pret A Manger,"The St Botolphs Building, 2 White Kennett St, London E1 7BS, United Kingdom",51.51506700000000,-0.07691110000000000,E1 7BS
Pret A Manger,City of London,Pret A Manger,"Old Change House, 128 Queen Victoria St, London EC4V 4BY, United Kingdom",51.512071,-0.09788570000000000,EC4V 4BJ
Pret A Manger,City of London,Pret A Manger,"Unit 1, 10 Paternoster Sq., London EC4M 7DY, United Kingdom",51.5148237,-0.0993165,EC4M 7DY
Pret A Manger,City of London,Pret A Manger,"Unit 10, Canada Place Mall, Canada Square Canary Wharf, RT2, London E14 5NN, United Kingdom",51.5066381,-0.0278379,E14 5NN
Pret A Manger,City of London,Pret A Manger,"70 Chiswell St, London EC1Y 4AB, United Kingdom",51.5205175,-0.0894169,EC1Y 4AB
Pret A Manger,City of London,Pret A Manger,"Canada Square, London E14 5NN, United Kingdom",51.5051082,-0.0178188,E14 9QN
Pret A Manger,City of London,Pret A Manger,"Unit 4, Unit 3 Ropemaker St, London EC2Y 9AW, United Kingdom",51.51945630000000,-0.08996410000000000,EC2Y 9HT
Pret A Manger,City of London,Pret A Manger,"The Walbrook, 95 Cannon St, London EC4N 5AE, United Kingdom",51.5118373,-0.09043350000000000,EC4N 5AE
Pret A Manger,City of London,Pret A Manger,"192 Bishopsgate, London EC2M 4NR, United Kingdom",51.5179108,-0.07978490000000000,EC2M 4NR
Pret A Manger,City of London,Pret A Manger,"Riverside, 7 More London Pl, London SE1 2RT, United Kingdom",51.50454140000000,-0.0814879,SE1 2RT
Pret A Manger,City of London,Pret A Manger,"240 Blackfriars Rd, London SE1 8NW, United Kingdom",51.506604,-0.1040824,SE1 8BU
Pret A Manger,City of London,Pret A Manger,"67 Coleman St, London EC2R 5BT, United Kingdom",51.5164252,-0.0896328,EC2R 5BT
Pret A Manger,City of London,Pret A Manger,"49-52 Bow Ln, London EC4M 9DJ, United Kingdom",51.5134517,-0.0932354,EC4M 9DN
Pret A Manger,City of London,Pret A Manger,"143 Fleet St, London EC4Y 1HY, United Kingdom",51.514351,-0.10709,EC4A 2BP
Pret A Manger,City of London,Pret A Manger,"47-49 Tooley St, London SE1 2QN, United Kingdom",51.50555930000000,-0.08499510000000000,SE1 2QN
Pret A Manger,City of London,Pret A Manger,"Unit, SQP3, Wyndham House, Marsh Wall Retail, London E14 9SH, United Kingdom",51.5011677,-0.0172657,E14 9SH
Pret A Manger,Barking and Dagenham,Pret A Manger,"BP Thamesmead Service Station, 84-89 Harrow Manorway, Way Abbeywood, Abbey Wood, London SE2 9SA, United Kingdom",51.492957,0.121759,SE2 9SA
Pret A Manger,Barking and Dagenham,Pret A Manger - The Liberty Shopping Centre,"11 Western Rd, Romford RM1 3RL, United Kingdom",51.5774227,0.1830547,RM1 3RL
Pret A Manger,Barking and Dagenham,Pret A Manger,"130 Eastern Ave, Ilford IG4 5AQ, United Kingdom",51.57597700000000,0.0468375,IG4 5AQ
Pret A Manger,Barking and Dagenham,Pret A Manger,"Hartmann Road Royal Docksб, Airport, London E16 2PB, United Kingdom",51.5036666,0.0494565,E16 2PX
Pret A Manger,Barking and Dagenham,Pret A Manger,"Unit C01, Hallsville Quarter, Bothwell Cl, London E16 1QT, United Kingdom",51.5149252,0.0090733,E16 1ED
Pret A Manger,Barking and Dagenham,Pret A Manger,"London E15 1AZ, United Kingdom",51.5416788,-0.0026966,E15 1DA
Pret A Manger,Barking and Dagenham,Pret A Manger,"21 Station St, London E15 1DA, United Kingdom",51.5416798,-0.0026537,E15 1DA
Pret A Manger,Barking and Dagenham,Pret A Manger,"Stratford International Quarter, Endeavour Square, Stratford Cross, London E20 1GL, United Kingdom",51.5413728,-0.0093168,E20 1JN
Pret A Manger,Barking and Dagenham,Pret A Manger,"The Gallery, Westfield Avenue Stratford City, Su 2054, 202, London E20 1ES, United Kingdom",51.543251,-0.007338,E20 1EJ
Pret A Manger,Barking and Dagenham,Pret A Manger,"5 Millennium Way, London SE10 0PH, United Kingdom",51.50026160000000,0.0034427,SE10 0PH
Pret A Manger,Barking and Dagenham,Pret A Manger,"Hartmann Rd, London E16 2PX, United Kingdom",51.5041045,0.04854510000000000,E16 3PU
Pret A Manger,Barnet,Pret A Manger,"99 Chase Side, London N14 5BU, United Kingdom",51.6336059,-0.133233,N14 5BU
Pret A Manger,Barnet,Pret A Manger,"197 Muswell Hill Broadway, Muswell Hill, London N10 3RS, United Kingdom",51.59142,-0.14267,N10 1DJ
Pret A Manger,Barnet,Pret A Manger,"M25, Junction, 23 Bignells Corner, Potters Bar EN6 3QQ, United Kingdom",51.6874815,-0.221872,EN6 3QQ
Pret A Manger,Barnet,Pret A Manger,"2 Golders Green Rd, London NW11 8LH, United Kingdom",51.5720338,-0.1958873,NW11 8LH
Pret A Manger,Barnet,Pret A Manger,"Unit R2, Brent Cross Shopping Centre, Prince Charles Dr, Brent Cross, London NW4 3FB, United Kingdom",51.577256,-0.224183,NW4 3FP
Pret A Manger,Barnet,Pret A Manger,"101 Kilburn High Rd, London NW6 6JE, United Kingdom",51.5383183,-0.1940065,NW6 6JE
Pret A Manger,Barnet,Pret A Manger,"Unit 23, The Mall, High Road Wood Green, London N22 6YA, United Kingdom",51.5944813,-0.1085301,N22 6YQ
Pret A Manger,Barnet,Pret A Manger,"192 Haverstock Hill, London NW3 2AJ, United Kingdom",51.5506092,-0.1645044,NW3 2AJ
Pret A Manger,Barnet,Pret A Manger,"219 Finchley Rd, South Hampstead, London NW3 6LP, United Kingdom",51.54686300000000,-0.1801164,NW3 6LP
Pret A Manger,Barnet,Pret A Manger,"130 W End Ln, London NW6 1SA, United Kingdom",51.5472432,-0.1909281,NW6 1SA
Pret A Manger,Barnet,Pret A Manger,"2-4 Circus Rd, London NW8 6PG, United Kingdom",51.53421000000000,-0.1716,NW8 6PH
Pret A Manger,Barnet,Pret A Manger,"Units 3 and 4, Shop, Shopping Precinct Palace Exchange Shopping Centre, Enfield EN2 6LF, United Kingdom",51.65166,-0.08213,EN2 6LF
Pret A Manger,Barnet,Pret a Manger,"Broad Ln, London N15 4QT, United Kingdom",51.58692,-0.0635134,N15 4QT
Pret A Manger,Barnet,Pret A Manger,"341 Kentish Town Rd, London NW5 2TJ, United Kingdom",51.5505365,-0.1408724,NW5 2TJ
Pret A Manger,Barnet,Pret A Manger,"13 Clifton Rd, London W9 1SZ, United Kingdom",51.5256058,-0.1789979,W9 1SZ
Pret A Manger,Barnet,Pret A Manger,"16B, The Concourse, London N9 0TY, United Kingdom",51.6248939,-0.0593755,N9 0TY
Pret A Manger,Bexley,Pret A Manger,"Creek Road Unit SU5 Crescent Arcade, Cutty, London SE10 9EJ, United Kingdom",51.4818227,-0.010761,SE10 9EJ
Pret A Manger,Bexley,Pret A Manger,"86 High St, Bromley BR1 1EY, United Kingdom",51.4028644,0.0150561,BR1 1EY
Pret A Manger,Bexley,Pret A Manger,"58-60 Stamford St, London SE1 9LX, United Kingdom",51.5070943,-0.107807,SE1 9LX
Pret A Manger,Bexley,Pret A Manger,"163 Piccadilly, London W1J 9ED, United Kingdom",51.5078158,-0.1400834,W1J 9ED
Pret A Manger,Bexley,Pret A Manger,"81 Piccadilly, London W1J 8HY, United Kingdom",51.5065929,-0.1434266,W1J 8HY
Pret A Manger,Bexley,Pret A Manger,"37 Shelton St, London WC2H 9HN, United Kingdom",51.5140316,-0.1248362,WC2H 9HN
Pret A Manger,Bexley,Pret A Manger,"64-68 New Oxford St, London WC1A 1AZ, United Kingdom",51.5170143,-0.1272275,WC1B 3QE
Pret A Manger,Bexley,Pret A Manger,"57 Great Eastern St, London EC2A 3QD, United Kingdom",51.524587,-0.08116900000000000,EC2A 3QD
Pret A Manger,Bexley,Pret A Manger,"10 York Rd, London SE1 7ND, United Kingdom",51.5037078,-0.1163002,SE1 7BQ
Pret A Manger,Bexley,Pret A Manger,"65 Long Acre, London WC2E 9JD, United Kingdom",51.513926,-0.122915,WC2E 9JD
Pret A Manger,Bexley,Pret A Manger,"192 Shoreditch High St, London E1 6HU, United Kingdom",51.52403,-0.07747000000000000,E1 6HU
Pret A Manger,Bexley,Pret A Manger,"319 High Holborn, London WC1V 7PU, United Kingdom",51.518184,-0.1127135,WC1V 7PU
Pret A Manger,Bexley,Pret A Manger,"77-78 St Martin's Ln, London WC2N 4AA, United Kingdom",51.5116009,-0.1274809,WC2N 4AA
Pret A Manger,Bexley,Pret A Manger,"Unit 4, Royal Festival Hall, Belvedere Rd, London W1U 3QF, United Kingdom",51.5059739,-0.1170727,SE1 8XX
Pret A Manger,Bexley,Pret A Manger,"87-88 Strand, London WC2R 0DW, United Kingdom",51.5103266,-0.1214415,WC2R 0DW
Pret A Manger,Bexley,Pret A Manger,"7 Berkeley Square, London W1J 6ES, United Kingdom",51.509446,-0.1446264,W1J 6ES
Pret A Manger,Bexley,Pret A Manger,"217 Strand, Temple, London WC2R 1AT, United Kingdom",51.5132807,-0.1127745,WC2R 1AT
Pret A Manger,Bexley,Pret A Manger,"35 Frith St, London W1D 5LQ, United Kingdom",51.5126935,-0.1310827,W1D 5LQ
Pret A Manger,Bexley,Pret A Manger,"152 Waterloo Rd, London SE1 7AA, United Kingdom",51.5022762,-0.1101774,SE1 7AA
Pret A Manger,Bexley,Pret A Manger,"125 High Holborn, London WC1V 6AN, United Kingdom",51.51766570000000,-0.1211901,WC1V 6AN
Pret A Manger,Bexley,Pret A Manger,"7-8 St. Martin's Pl, London WC2N 4HA, United Kingdom",51.5093776,-0.1267583,WC2N 4JH
Pret A Manger,Bexley,Pret A Manger,"25 Villiers St, London WC2N 6ND, United Kingdom",51.5081984,-0.1238661,WC2N 6ND
Pret A Manger,Bexley,Pret A Manger,"Unit 3, 30 Gresham St, London EC2V 7PG, United Kingdom",51.51416,-0.0931504,EC2V 6DT
Pret A Manger,Bexley,Pret A Manger,"Central Hub, Nugent Shopping Park, Cray Ave., Orpington BR5 3RP, United Kingdom",51.3929398,0.1123776,BR5 3RP
Pret A Manger,Bexley,Pret A Manger,"27-28 Great Marlborough St, Carnaby, London W1F 7HY, United Kingdom",51.51375610000000,-0.1396972,W1F 7HY
Pret A Manger,Bexley,Pret A Manger,"111 Westminster Bridge Rd, London SE1 7HR, United Kingdom",51.4991631,-0.1132503,SE1 7HR
Pret A Manger,Bexley,Pret A Manger,"202-206, 202 Union St, London SE1 0LX, United Kingdom",51.5038806,-0.1026117,SE1 0LX
Pret A Manger,Bexley,Pret A Manger,"5 Pall Mall E, London SW1Y 5BA, United Kingdom",51.5082509,-0.1300114,WC2H 7HA
Pret A Manger,Bexley,Pret A Manger,"29-33 Kingsway, London WC2B 6UF, United Kingdom",51.51415840000000,-0.118532,WC2B 6UF
Pret A Manger,Bexley,Pret A Manger,"9 Argyll St, London W1F 7TG, United Kingdom",51.5147357,-0.1406417,W1F 7TG
Pret A Manger,Bexley,Pret A Manger,"67 Tottenham Ct Rd, London W1T 2EY, United Kingdom",51.5202582,-0.1342505,W1T 2EY
Pret A Manger,Bexley,Pret A Manger,"Retail Unit 2 Regent Street Retail Unit 2, London SW1Y 4PE, United Kingdom",51.5082595,-0.132851,SW1Y 4QU
Pret A Manger,Bexley,Pret A Manger,"280 High Holborn, London WC1V 7EE, United Kingdom",51.517687,-0.1171046,WC1V 7EE
Pret A Manger,Bexley,Pret A Manger,"61-65 Conduit St, London W1S 2GB, United Kingdom",51.512804,-0.1409787,W1S 2GB
Pret A Manger,Bexley,Pret A Manger,"Unit 6, 83 Chancery Ln, London WC2A 1DD, United Kingdom",51.5158202,-0.1120312,WC2A 1DE
Pret A Manger,Bexley,Pret A Manger,"35-37 King's Rd, London SW3 4NB, United Kingdom",51.49020610000000,-0.1619948,SW3 4NB
Pret A Manger,Bexley,Pret A Manger,"128 Shoreditch High St, London E1 6JE, United Kingdom",51.5267733,-0.07831550000000000,E1 6JE
Pret A Manger,Bexley,Pret A Manger,"Unit 12, Great Minster House, 19-23 Horseferry Rd, London SW1P 2AA, United Kingdom",51.4947145,-0.1295317,SW1P 2AA
Pret A Manger,Bexley,Pret A Manger,"182, London WC2R 1DP, United Kingdom",51.5127223,-0.1141382,WC2R 1AB
Pret A Manger,Bexley,Pret A Manger,"21 Crown Passage, London SW1Y 6PP, United Kingdom",51.5057851,-0.13803,SW1Y 6PP
Pret A Manger,Bexley,Pret A Manger,"4 Regent Pl, London W1B 5EA, United Kingdom",51.51115860000000,-0.1383445,W1B 5EA
Pret A Manger,Bexley,Pret A Manger,"298 Regent St., London W1B 3AP, United Kingdom",51.5163141,-0.1421484,W1B 3AP
Pret A Manger,Bexley,Pret A Manger,"120-125 Strand, London WC2R 0AP, United Kingdom",51.5109325,-0.1192855,WC2R 0AP
Pret A Manger,Brent,Pret A Manger,"Units 46, Designer Outlet, 48 Wembley Park Blvd, Wembley Park, Wembley HA9 0FD, United Kingdom",51.5566417,-0.2834186,HA9 0HS
Pret A Manger,Camden,Pret A Manger,"231 Camden High St, London NW1 7BU, United Kingdom",51.5400931,-0.1439543,NW1 7BU
Pret A Manger,Camden,Pret A Manger,"2-4 Camden High St, London NW1 0JH, United Kingdom",51.53484480000000,-0.1384267,NW1 0JH
Pret A Manger,Camden,Pret A Manger,"157 Camden High St, London NW1 7JY, United Kingdom",51.53812,-0.142214,NW1 7JY
Pret A Manger,Croydon,Pret A Manger,"93a George St, Croydon CR0 1LD, United Kingdom",51.3746705,-0.094682,CR0 1LD
Pret A Manger,Ealing,Pret A Manger,"45 High St, London W5 5AW, United Kingdom",51.5129646,-0.3046031,W5 5AW
Pret A Manger,Enfield,Pret A Manger,"Great Cambridge Rd, London EN1 1JD, United Kingdom",51.64235130000000,-0.0614846,EN1 1JD
Pret A Manger,Greenwich,Pret A Manger,"Unit A2, River Mill, 2 Station Rd, London SE13 5FQ, United Kingdom",51.4647847,-0.0124508,SE13 5FQ
Pret A Manger,Hackney,Pret A Manger,"Amhurst Road Pret, London E8 1JB, United Kingdom",51.5473304,-0.0555859,E8 1JB
Pret A Manger,Hackney,Pret A Manger,"Kingsland High St, Western Curve, London E8 2JS, United Kingdom",51.5472836,-0.0757595,E8 2JS
Pret A Manger,Hackney,Pret A Manger,"121 Bethnal Grn Rd, London E2 7DG, United Kingdom",51.52499780000000,-0.0718273,E2 7DG
Pret A Manger,Hackney,Pret A Manger,"172 Stoke Newington High St, London N16 0PE, United Kingdom",51.5618843,-0.0737738,N16 0PE
Pret A Manger,Hammersmith and Fulham,Pret A Manger,"8-10 King St, London W6 0QA, United Kingdom",51.4929934,-0.2255938,W6 0QA
Pret A Manger,Hammersmith and Fulham,Pret A Manger,"Shopping Centre, A219 Unit 30, Broadway, London W6 9YE, United Kingdom",51.49239680000000,-0.2233769,W6 8AB
Pret A Manger,Hammersmith and Fulham,Pret A Manger,"Retail Centre, Unit 5 Fulham Rd., Fulham Broadway, London SW6 1BW, United Kingdom",51.4803487,-0.1945194,SW6 1BW
Pret A Manger,Hammersmith and Fulham,Pret A Manger,"168-188 Fulham Palace Rd, London W6 9PA, United Kingdom",51.4854353,-0.2204083,W6 9PA
Pret A Manger,Hammersmith and Fulham,Pret A Manger,"Unit 5, Kennedy House, 119 Hammersmith Rd, London W14 0QH, United Kingdom",51.4944676,-0.2125088,W14 0QH
Pret A Manger,Hammersmith and Fulham,Pret A Manger,"367B Fulham Rd., London SW10 9TN, United Kingdom",51.48540760000000,-0.1816148,SW10 9TN
Pret A Manger,Hammersmith and Fulham,Pret A Manger,"45, 47 Parsons Green Ln, London SW6 4HH, United Kingdom",51.4753359,-0.2006126,SW6 4HH
Pret A Manger,Hammersmith and Fulham,Pret A Manger,"230-232 Earls Ct Rd, London SW5 9RD, United Kingdom",51.4920893,-0.1930147,SW5 9FE
Pret A Manger,Haringey,Pret A Manger,"Arch 16 Station Pl, Finsbury Park, London N4 2DQ, United Kingdom",51.5650509,-0.1058653,N4 2DQ
Pret A Manger,Haringey,Pret A Manger - Tottenham Hale Station,"Tottenham Hale Station, London N17 9NA, United Kingdom",51.5884184,-0.0605053,N17 9FY
Pret A Manger,Haringey,Pret A Manger,"10 Wells Terrace, Finsbury Park, London N4 3JU, United Kingdom",51.56523720000000,-0.1080841,N4 3JU
Pret A Manger,Haringey,Pret A Manger,"257-258 Upper St, London N1 1RU, United Kingdom",51.5458638,-0.1034502,N1 1RU
Pret A Manger,Haringey,Pret A Manger,"Unit 59, 42 Selborne Road Walthamstow, 60 The Mall, London E17 7JR, United Kingdom",51.58361800000000,-0.0223932,E17 7JR
Pret A Manger,Harrow,Pret A Manger - London Harrow,"68-70 St. Anns Rd, Harrow HA1 1JX, United Kingdom",51.5815993,-0.3368019,HA1 1JX
Pret A Manger,Havering,Pret A Manger,"51 Borough High St, London SE1 1NB, United Kingdom",51.50475540000000,-0.0897945,SE1 1NB
Pret A Manger,Havering,Pret A Manger,"101 Turnmill St, London EC1M 5QP, United Kingdom",51.5203159,-0.1043791,EC1M 5QP
Pret A Manger,Hillingdon,Pret A Manger,"Ariel Way Westfield, Mall South, Unit 2033, Level 50, London W12 7GR, United Kingdom",51.5074924,-0.2212054,W12 7GD
Pret A Manger,Hillingdon,Pret A Manger,"Unit 61, Euston Road St Pancras International Station, London N1C 4QL, United Kingdom",51.5313238,-0.1265718,N1C 4QL
Pret A Manger,Hillingdon,Pret A Manger,"Unit Cg08, York Way Kings Cross Station, London N1C 9AP, United Kingdom",51.53154320000000,-0.1245735,N1C 4AG
Pret A Manger,Hillingdon,Pret A Manger,"7-8 Rathbone Pl, London W1T 1HN, United Kingdom",51.5167952,-0.133193,W1T 2DQ
Pret A Manger,Hillingdon,Pret A Manger,"Ariel Way, London W12 7GA, United Kingdom",51.50724960000000,-0.2191057,W12 7GG
Pret A Manger,Hillingdon,Pret A Manger,"556 Oxford St, London W1C 1LZ, United Kingdom",51.5136475,-0.1586049,W2 2UH
Pret A Manger,Hillingdon,Pret A Manger,"252 Tottenham Ct Rd, London W1T 7RB, United Kingdom",51.51781,-0.13127,W1T 7RB
Pret A Manger,Hillingdon,Pret A Manger,"95 Farringdon Rd, London EC1R 3BT, United Kingdom",51.5224201,-0.1075039,EC1R 3BT
Pret A Manger,Hillingdon,Pret A Manger,"31 Cavendish Square, London W1G 0PW, United Kingdom",51.5159343,-0.1441615,W1G 0PW
Pret A Manger,Hillingdon,Pret A Manger,"The Pavilions Shopping Centre, Grainge's Yard, Uxbridge UB8 1LN, United Kingdom",51.5462623,-0.4799934,UB8 1JP
Pret A Manger,Hillingdon,Pret A Manger,"36-38 Cowcross St, London EC1M 6BY, United Kingdom",51.5202298,-0.1046483,EC1M 6BY
Pret A Manger,Hillingdon,Pret A Manger,"62-65 Trafalgar Sq, London WC2N 5DS, United Kingdom",51.5073278,-0.1286035,SW1
Pret A Manger,Hillingdon,Pret A Manger,"Ariel Way, London W12 7HT, United Kingdom",51.50724960000000,-0.2191057,W12 7GG
Pret A Manger,Hillingdon,Pret A Manger,"78 Hatton Garden, London EC1N 8JS, United Kingdom",51.52009230000000,-0.1088443,EC1N 8JS
Pret A Manger,Hillingdon,Pret A Manger,"3-5 St John St, London EC1M 4AA, United Kingdom",51.51996160000000,-0.1019166,EC1M 4AA
Pret A Manger,Hillingdon,Pret A Manger,"Network House, 5-11 Mortimer St, London W1T 3JB, United Kingdom",51.518654,-0.137272,W1T 3HS
Pret A Manger,Hillingdon,Pret A Manger,"19-21 Ludgate Hill, London EC4M 7AE, United Kingdom",51.51378,-0.10124,EC4M 7AE
Pret A Manger,Hillingdon,Pret A Manger,"Fleet Place House, 11-13 Holborn Viaduct, London EC1A 2AT, United Kingdom",51.51665190000000,-0.1035942,EC4M 7RA
Pret A Manger,Hillingdon,Pret A Manger,"49 Tothill St, London SW1H 9LQ, United Kingdom",51.4996056,-0.1325017,SW1H 9LQ
Pret A Manger,Hillingdon,Pret A Manger,"182 St John St, London EC1V 4JZ, United Kingdom",51.52457220000000,-0.1030966,EC1V 4JZ
Pret A Manger,Hillingdon,Pret A Manger,"Euston Rd., London N1C 4QP, United Kingdom",51.526916,-0.1321669,NW1 2AE
Pret A Manger,Hillingdon,Pret A Manger,"Unit 5, Marylebone Railway Station, Melcombe Pl, London NW1 6JJ, United Kingdom",51.5225315,-0.1633673,NW1 6JJ
Pret A Manger,Hounslow,Pret A Manger - London Hounslow,"198 High St, Hounslow TW3 1HL, United Kingdom",51.4688984,-0.362738,TW3 1HL
Pret A Manger,Islington,Pret A Manger,"27 Islington High St, London N1 9LH, United Kingdom",51.5328885,-0.1063855,N1 9LH
Pret A Manger,Islington,Pret A Manger,"12 Parkfield St, London N1 0PS, United Kingdom",51.5342006,-0.1060342,N1 0PS
Pret A Manger,Kensington and Chelsea,Pret A Manger,"15 Old Brompton Rd, South Kensington, London SW7 3HZ, United Kingdom",51.4935712,-0.1742759,SW7 2NB
Pret A Manger,Kensington and Chelsea,Pret A Manger,"Unit 14, Kensington High Street Arcade, London W8 5SF, United Kingdom",51.5007969,-0.1926525,W8 5SF
Pret A Manger,Kensington and Chelsea,Pret A Manger,"Old Brompton Rd, South Kensington, London SW7 2NB, United Kingdom",51.4908915,-0.1811886,SW7 3RP
Pret A Manger,Kensington and Chelsea,Pret A Manger,"99 Gloucester Rd, South Kensington, London SW7 4SS, United Kingdom",51.4939993,-0.1820867,SW7 4SS
Pret A Manger,Kensington and Chelsea,Pret A Manger,"132 Brompton Rd, London SW3 1HY, United Kingdom",51.4987663,-0.165644,SW3 1HY
Pret A Manger,Kensington and Chelsea,Pret A Manger,"106-108 Brompton Rd, London SW3 1JJ, United Kingdom",51.4993474,-0.1646853,SW3 1JJ
Pret A Manger,Kensington and Chelsea,Pret A Manger,"65 Notting Hill Gate, London W11 3JS, United Kingdom",51.5088681,-0.1967681,W11 3JS
Pret A Manger,Kensington and Chelsea,Pret A Manger,"Hall B, Circus Rd W Power Station, Battersea, Turbine, London SW8 5BN, United Kingdom",51.4823811,-0.1444907,SW8 5BN
Pret A Manger,Kensington and Chelsea,Pret A Manger,"Victoria Coach Station, 164 Buckingham Palace Rd, London SW1W 9TP, United Kingdom",51.4924626,-0.1484844,SW1W 9TP
Pret A Manger,Kensington and Chelsea,Pret A Manger,"129a Wilton Rd, Pimlico, London SW1V 1JZ, United Kingdom",51.4943551,-0.1423606,SW1V 1JZ
Pret A Manger,Kensington and Chelsea,Pret A Manger,"21-24 Grosvenor Pl, London SW1X 7HN, United Kingdom",51.4998659,-0.1494397,SW1X 7HN
Pret A Manger,Kensington and Chelsea,Pret A Manger,"84-86 Holland Park Ave, London W11 3RB, United Kingdom",51.507197,-0.206148,W11 3RB
Pret A Manger,Kensington and Chelsea,Pret A Manger,"Buckingham Palace Rd, London SW1W 9SJ, United Kingdom",51.4943377,-0.1467715,SW1W 0SS
Pret A Manger,Kensington and Chelsea,Pret A Manger,"7-9 Queensway, London W2 4QJ, United Kingdom",51.51067460000000,-0.1872789,W2 4QJ
Pret A Manger,Kensington and Chelsea,Pret A Manger,"3-5 Praed St, Tyburnia, London W2 1NJ, United Kingdom",51.518928,-0.1692863,W2 1NJ
Pret A Manger,Kensington and Chelsea,Pret A Manger,"140 Ladbroke Grove, London W10 5NE, United Kingdom",51.5178478,-0.2100351,W10 5NE
Pret A Manger,Kensington and Chelsea,Pret A Manger,"92 Buckingham Palace Rd, London SW1W 0SS, United Kingdom",51.4943916,-0.1467251,SW1W 0SS
Pret A Manger,Kensington and Chelsea,Pret A Manger,"32 Avery Row, London W1K 4BE, United Kingdom",51.5122964,-0.145394,W1K 4BE
Pret A Manger,Kensington and Chelsea,Pret A Manger,"26 Edgware Rd, London W2 2EH, United Kingdom",51.51372630000000,-0.160508,W1H 7BZ
Pret A Manger,Kensington and Chelsea,Pret A Manger,"Victoria Station, Unit 36B Wilton Rd, London SW1V 1JU, United Kingdom",51.4953456,-0.1439086,SW1W 9SJ
Pret A Manger,Kensington and Chelsea,Pret A Manger,"10 Bressenden Pl, London SW1E 5DH, United Kingdom",51.4980871,-0.1427093,SW1E 5DH
Pret A Manger,Kensington and Chelsea,Pret A Manger,"14 -24 Caxton St, London SW1H 0QU, United Kingdom",51.49869040000000,-0.1359612,SW1H 0QU
Pret A Manger,Kensington and Chelsea,Pret A Manger,"Unit 26, Platform, 1 Paddington Subway Sta, London W2 1HB, United Kingdom",51.5166744,-0.1769328,W2 1HB
Pret A Manger,Kingston upon Thames,Pret A Manger,"85-87 Clarence St, Kingston upon Thames KT1 1RB, United Kingdom",51.41095,-0.30413,KT1 1RF
Pret A Manger,Kingston upon Thames,Pret a Manger,"1, 23 Church St, Market Pl, Kingston upon Thames KT1 1JP, United Kingdom",51.4100817,-0.3058201,KT1 1JP
Pret A Manger,Lambeth,Pret A Manger,"356-358 S Lambeth Rd, London SW8 1UG, United Kingdom",51.47270350000000,-0.1225105,SW8 1UG
Pret A Manger,Lambeth,Pret A Manger,"21 St George Wharf, London SW8 2FH, United Kingdom",51.48625,-0.12483,SW8 1SP
Pret A Manger,Lambeth,Pret A Manger,"417 Brixton Rd, London SW9 8HE, United Kingdom",51.463069,-0.1146361,SW9 8HY
Pret A Manger,Lambeth,Pret A Manger,"40 Vauxhall Bridge Rd, London SW1V 2RX, United Kingdom",51.4903327,-0.1325749,SW1V 2RX
Pret A Manger,Lambeth,Pret A Manger,"Elephant and Castle 1 The Elephant, Elephant and Castle, London SE1 6BH, United Kingdom",51.4935538,-0.1010058,SE1 6BH
Pret A Manger,Lambeth,Pret A Manger,"157, 168 Blackfriars Rd, London SE1 8EZ, United Kingdom",51.5017165,-0.1043053,SE1 8EZ
Pret A Manger,Lambeth,Pret A Manger,"1 The Pavement, London SW4 0HY, United Kingdom",51.4620319,-0.1382235,SW4 0HY
Pret A Manger,Lambeth,Pret A Manger,"47 Great Peter St, London SW1P 3LT, United Kingdom",51.496845,-0.129198,SW1P 3LT
Pret A Manger,Lambeth,Pret A Manger,"17-19 Grove Vale, London SE22 8ET, United Kingdom",51.4617285,-0.07977520000000000,SE22 8ET
Pret A Manger,Lambeth,Pret A Manger,"Bankside 2, 2 Canvey St, London SE1 9AN, United Kingdom",51.5057588,-0.0992494,SE1 9AN
Pret A Manger,Lewisham,Pret A Manger,"357-361 Lewisham High St, London SE13 6NZ, United Kingdom",51.4520797,-0.0160487,SE13 6NZ
Pret A Manger,Merton,Pret A Manger,"4 Wimbledon Hill Rd, London SW19 7NS, United Kingdom",51.4209551,-0.2073728,SW19 7NS
Pret A Manger,Merton,Pret A Manger,"21 Wimbledon Bridge, London SW19 7NH, United Kingdom",51.4210612,-0.206539,SW19 7NH
Pret A Manger,Merton,Pret A Manger,"3 Mitcham Rd, London SW17 9PA, United Kingdom",51.42804,-0.16755,SW17 9PA
Pret A Manger,Merton,Pret A Manger,"Hunter Wing, St George's University, Coverton Road Second, London SW17 0RE, United Kingdom",51.4269001,-0.1747875,SW17 0QT
Pret A Manger,Merton,Pret A Manger,"Unit 86, 2 Garratt Ln, Southside Shopping Centre, London SW18 4TF, United Kingdom",51.45653250000000,-0.1931406,SW18 4TF
Pret A Manger,Merton,Pret A Manger,"Esso Kingston, Malden Way, Shannon Cor, New Malden KT3 6HF, United Kingdom",51.39876840000000,-0.2436323,KT3 6EJ
Pret A Manger,Merton,Pret A Manger,"84 High St, Sutton SM1 1EX, United Kingdom",51.36245,-0.19236,SM1 1EX
Pret A Manger,Merton,Pret A Manger,"200 Balham High Rd, London SW12 9DH, United Kingdom",51.4436293,-0.152852,SW12 8JA
Pret A Manger,Merton,Pret A Manger,"121 Putney High St, London SW15 1SU, United Kingdom",51.4623898,-0.2162134,SW15 1SU
Pret A Manger,Merton,Pret A Manger,"80-82 St John's Rd, London SW11 1RA, United Kingdom",51.4613495,-0.1674535,SW11 1PX
Pret A Manger,Newham,Petit Pret,"Shop 2, Southern Ticket Hall, Stratford Station, London E15 1AZ, United Kingdom",51.5409637,-0.0036867,E15 1AZ
Pret A Manger,Newham,Pret A Manger,"1 Bank St, London E14 5NN, United Kingdom",51.5059664,-0.0258903,E14 5AA
Pret A Manger,Richmond upon Thames,Pret A Manger,"37 Lower George St, Richmond TW9 1HU, United Kingdom",51.46089310000000,-0.3035163,TW9 1HU
Pret A Manger,Richmond upon Thames,Pret a Manger,"21 King St, Twickenham TW1 3SD, United Kingdom",51.4457707,-0.3287572,KT2 5GA
Pret A Manger,Southwark,Pret A Manger,"Unit 3, 2A Southwark Bridge Rd, Bankside, London SE1 9HA, United Kingdom",51.5080568,-0.0950245,SE1 9HA
Pret A Manger,Southwark,Pret A Manger,"40 Stoney St, London SE1 9LB, United Kingdom",51.5068549,-0.0913542,SE1 9LB
Pret A Manger,Southwark,Pret A Manger,"167 Borough High St, London SE1 1HR, United Kingdom",51.50272650000000,-0.0919375,SE1 1HR
Pret A Manger,Tower Hamlets,Pret A Manger,"77-80 Gracechurch St, London EC3V 0AS, United Kingdom",51.5122656,-0.0846183,EC3V 0AS
Pret A Manger,Tower Hamlets,Pret A Manger,"25 St Mary Axe, London EC3A 8AA, United Kingdom",51.5147144,-0.08102380000000000,EC3A 8AA
Pret A Manger,Tower Hamlets,Pret A Manger,"Old Broad St Winchester House Unit 3, London EC2M 5NG, United Kingdom",51.5160378,-0.083969,EC2N 1BG
Pret A Manger,Westminster,Pret A Manger,"93-95 Victoria St, London SW1H 0HW, United Kingdom",51.4973714,-0.1353875,SW1H 0HW
Pret A Manger,Westminster,Pret A Manger,"10 Bressenden Pl, London SW1E 5DU, United Kingdom",51.4979541,-0.1425912,SW1W 0EJ
Pret A Manger,Westminster,Pret A Manger,"173 Victoria St, London SW1E 5NA, United Kingdom",51.4963349,-0.1421851,SW1E 5NA
Pret A Manger,Westminster,Pret A Manger,"15 Terminus Pl, London SW1V 1JR, United Kingdom",51.4960134,-0.1449358,SW1V 1JR
Starbucks,City of London,"Starbucks Coffee, Broadgate","100 Liverpool St, London EC2M 7PP, United Kingdom",51.5177662,-0.08253570000000000,EC2M 7PP
Starbucks,City of London,Starbucks Coffee,"50 Minories, London EC3N 1JJ, United Kingdom",51.5116518,-0.07519670000000000,EC3N 1JJ
Starbucks,City of London,Starbucks,"100 Liverpool St, London EC2M 7PP, United Kingdom",51.51788,-0.08339000000000000,EC2M 2AT
Starbucks,City of London,Starbucks,"62 Threadneedle St, London EC2R 8HP, United Kingdom",51.51403000000000,-0.08713,EC2R 8HP
Starbucks,City of London,Starbucks Coffee,"3 Tower Place, London EC3R 5BT, United Kingdom",51.5084482,-0.07915030000000000,EC3R 5BT
Starbucks,City of London,Starbucks,"2a Eastcheap, London EC3M 1BN, United Kingdom",51.51056,-0.0857,EC3M 1AA
Starbucks,City of London,Starbucks Coffee,"122 City Rd, London EC1V 2NR, United Kingdom",51.52619,-0.08795,EC1V 2NR
Starbucks,City of London,Starbucks Coffee,"59 Broadgate Link, London EC2M 7PY, United Kingdom",51.5174771,-0.08088520000000000,EC2M 4NS
Starbucks,City of London,Starbucks Coffee,"11 Leadenhall St, London EC3V 1LP, United Kingdom",51.51341,-0.08285,EC3V 1LP
Starbucks,City of London,Starbucks,"54 Tooley St, London SE1 9SP, United Kingdom",51.50543,-0.08526,SE1 9SP
Starbucks,City of London,Starbucks,"49 Shad Thames, London SE1 2NJ, United Kingdom",51.5039562,-0.07533520000000000,SE1 2NJ
Starbucks,City of London,Starbucks Coffee,"38 Walbrook, London EC4N 8BN, United Kingdom",51.51263000000000,-0.09008,EC4N 4YA
Starbucks,City of London,Starbucks Coffee,"1-3 Villiers St, London WC2N 6NN, United Kingdom",51.5074549,-0.122824,WC2N 6NN
Starbucks,City of London,Starbucks Coffee,"S Colonnade, London E14 4QT, United Kingdom",51.50495,-0.02076,E14 5AB
Starbucks,City of London,Starbucks Coffee,"87 King William St, London EC4N 7BJ, United Kingdom",51.5127117,-0.08813880000000000,EC4N 7BJ
Starbucks,City of London,Starbucks,"120 Moorgate, London EC2M 6UR, United Kingdom",51.51888,-0.08769000000000000,EC2M 6UR
Starbucks,City of London,Starbucks Coffee,"45 Whitechapel Rd, London E1 1DU, United Kingdom",51.51697,-0.06812,E1 1DU
Starbucks,City of London,Starbucks Coffee,"25 Bank St, London E14 5JP, United Kingdom",51.50254,-0.01941,E14 5NY
Starbucks,City of London,Starbucks Coffee,"31-33 Sun St, London EC2M 2PY, United Kingdom",51.52005,-0.08359,EC2M 2PY
Starbucks,City of London,Starbucks Coffee,"34 New Bridge St, London EC4V 6BJ, United Kingdom",51.5126096,-0.103882,EC4V 6BJ
Starbucks,City of London,Starbucks Coffee,"3 Fleet Pl, London EC4M 7RA, United Kingdom",51.51667,-0.10361,EC4M 7RA
Starbucks,City of London,Starbucks Coffee,"112-116 New Oxford St, London WC1A 1HH, United Kingdom",51.5166932,-0.1292172,WC1A 1HH
Starbucks,City of London,Starbucks Coffee,"143-144 Cheapside, London EC2V 6BJ, United Kingdom",51.51458,-0.09612,EC2V 6BJ
Starbucks,City of London,Starbucks Coffee,"1 Paternoster Row, London EC4M 7DX, United Kingdom",51.51454,-0.09863,EC4M 7DX
Starbucks,City of London,Starbucks,"7 Borough High St, London SE1 9SU, United Kingdom",51.50577,-0.08861,SE1 9SU
Starbucks,City of London,Starbucks,"2 Churchill Pl, London E14 5RB, United Kingdom",51.50441000000000,-0.01497,E14 5RB
Starbucks,City of London,Starbucks Coffee,"Belvedere Rd, London SE1 7GQ, United Kingdom",51.50202000000000,-0.11783,SE1 7GQ
Starbucks,City of London,Starbucks,"262 High Holborn, London WC1V 7EZ, United Kingdom",51.51781,-0.11713,WC1V 7EZ
Starbucks,City of London,Starbucks,"14 Milner Place, London SE1 7PE, United Kingdom",51.50368,-0.11572,SE1 7NJ
Starbucks,City of London,Starbucks Coffee,"Cowcross St, London EC1M 6DQ, United Kingdom",51.52024,-0.10343,EC1M 6DU
Starbucks,City of London,Starbucks Coffee,"51 Great Russell St, London WC1B 3BA, United Kingdom",51.51827610000000,-0.1258015,WC1B 3BA
Starbucks,City of London,Starbucks Coffee,"223-227 Borough High St, London SE1 1JD, United Kingdom",51.50083,-0.09349000000000000,SE1 1JD
Starbucks,City of London,Starbucks Coffee,"12 A Mepham St, London SE1 8SE, United Kingdom",51.5040539,-0.1126814,SE1 7NJ
Starbucks,City of London,Starbucks Coffee,"60-66 Wardour St, London W1F 0TA, United Kingdom",51.51272000000000,-0.13331,W1F 0TA
Starbucks,City of London,Starbucks Coffee,"6A Vigo St, London W1S 3HF, United Kingdom",51.51032610000000,-0.1391377,W1S 3HF
Starbucks,City of London,Starbucks Coffee,"St. Katherine's House, 10 Kingsway, London WC2B 6LH, United Kingdom",51.51390000000000,-0.11766,WC2B 6LH
Starbucks,City of London,Starbucks Coffee,"10 Russell St, London WC2B 5HZ, United Kingdom",51.51235,-0.12164,WC2B 5HZ
Starbucks,City of London,Starbucks Coffee,"Midland Rd, The Circle, London NW1 2QL, United Kingdom",51.53141,-0.12637,N1C 4BJ
Starbucks,City of London,Starbucks,"Soho Pl, London W1D 3BG, United Kingdom",51.51590000000000,-0.13042,W1D 3BG
Starbucks,City of London,"Starbucks, London Kings Cross Station","Euston Rd., London N1 9AL, United Kingdom",51.5311967,-0.1241942,N1C 4BJ
Starbucks,City of London,Starbucks Coffee,"1 Canada Square, Jubilee E14 5AB, United Kingdom",51.5047,-0.01973,E14 4QT
Starbucks,City of London,Starbucks Coffee,"13-15 Surrey Quays Rd, London SE16 7LL, United Kingdom",51.49488000000000,-0.04648,SE16 7LL
Starbucks,City of London,Starbucks,"Silvertown Way, London E16 1GW, United Kingdom",51.514812,0.008970000000000000,E16 1ED
Starbucks,City of London,Starbucks Coffee,"New Globe Walk, London SE1 9DS, United Kingdom",51.50808,-0.09608,SE1 9DS
Starbucks,City of London,Starbucks Coffee,"389 Mile End Rd, Bow, London E3 4PL, United Kingdom",51.52491,-0.03531,E3 4QS
Starbucks,City of London,Starbucks Coffee,"Sandell St, London SE1 8NH, United Kingdom",51.5040189,-0.1095167,SE1 8TG
Starbucks,City of London,"Starbucks Coffee, Platform 2","Victoria Station, London SW1E 5ND, United Kingdom",51.4964135,-0.143849,SW1E 5ND
Starbucks,City of London,Starbucks Coffee,"2 Western Gateway, London E16 1DR, United Kingdom",51.50888,0.02502,E16 1DR
Starbucks,City of London,Starbucks Royal Wharf,"5 Halyard Place, London E16 2TH, United Kingdom",51.5018187,0.0310678,E16 2SB
Starbucks,City of London,Starbucks Coffee,"52 Berkeley St, London W1J 8ET, United Kingdom",51.5074708,-0.1426728,W1J 8ET
Starbucks,City of London,Starbucks Coffee,"1, 2 Underground station, London NW1 5LA, United Kingdom",51.522668,-0.1569,NW1 5LD
Starbucks,City of London,Starbucks Coffee,"34 Great Marlborough St, Carnaby, London W1F 7JD, United Kingdom",51.51402,-0.13925,W1F 7JD
Starbucks,City of London,Starbucks,"78-80 Old Broad St, London EC2M 1QP, United Kingdom",51.51741000000000,-0.08328000000000000,EC2M 1QP
Starbucks,Barking and Dagenham,Starbucks,"37 Station Parade, Barking IG11 8EB, United Kingdom",51.53907,0.08053000000000000,IG11 8EB
Starbucks,Barking and Dagenham,Starbucks,"Claps Gate Ln, London E6 6LG, United Kingdom",51.5214,0.07233000000000000,E6 6LG
Starbucks,Barking and Dagenham,Starbucks,"Heathway, London RM10 8RE, United Kingdom",51.54115000000000,0.1483,RM10 8PE
Starbucks,Barnet,Starbucks,"8A Station Rd, Arnos Grove, London N11 1FR, United Kingdom",51.61211000000000,-0.1373,N11 1FR
Starbucks,Barnet,Starbucks Coffee,"The Torrington Public House, 811 High Rd, London N12 8JR, United Kingdom",51.6163,-0.17702,N12 8JR
Starbucks,Barnet,Starbucks,"2-4 M1, Mill Hill, London NW7 3HU, United Kingdom",51.6311718,-0.2637976,NW7 3HU
Starbucks,Barnet,Starbucks Coffee,"23 Bignells Corner, Potters Bar EN6 3QQ, United Kingdom",51.68748,-0.22173,EN6 3QQ
Starbucks,Barnet,Starbucks,"The Green, London N9 0TZ, United Kingdom",51.62473,-0.05708000000000000,N9 0EH
Starbucks,Barnet,Starbucks Coffee,"23 M25 Bignells Corner, Hertforshire EN6 3QQ, United Kingdom",51.68765,-0.22231,EN6 3QQ
Starbucks,Barnet,Starbucks Coffee,"Starbucks C/o Sainsbury's, 681-686, 681 Green Lanes, London N21 3RS, United Kingdom",51.63051,-0.09711000000000000,N21 3RS
Starbucks,Barnet,Starbucks Coffee,"Shenley Rd, Borehamwood WD6 1AE, United Kingdom",51.6558497,-0.2770497,WD6 1AE
Starbucks,Barnet,Starbucks Coffee,"113 High St, Barnet EN5 5UZ, United Kingdom",51.6554,-0.2019455,EN5 5UZ
Starbucks,Barnet,Starbucks,"Barnet By Passage, Barnet By-Pass, Borehamwood WD6 5PU, United Kingdom",51.657312,-0.250169,WD6 5PU
Starbucks,Bexley,Starbucks Coffee,"The Mall, Arnsberg Way, Bexleyheath DA6 7JN, United Kingdom",51.45616,0.1463,DA6 7JN
Starbucks,Bexley,Starbucks,"77a High St, Sidcup DA14 6DW, United Kingdom",51.4264613,0.1020666,DA14 6DW
Starbucks,Bexley,Starbucks,"3 Roman Way, Dartford DA1 4BH, United Kingdom",51.45053,0.17827,DA1 4BH
Starbucks,Bexley,Starbucks,"9 Pegler Square, London SE3 9FW, United Kingdom",51.461845,0.026578,SE3 9FW
Starbucks,Bexley,Starbucks,"264 Bugsby's Way, London SE7 7ST, United Kingdom",51.48737,0.0247,SE7 7AL
Starbucks,Bexley,Starbucks,"19 Atlantis Ave, London E16 2BF, United Kingdom",51.5082694,0.0720344,E16 2AQ
Starbucks,Bexley,Starbucks Coffee,"Peninsula Square, London SE10 0BB, United Kingdom",51.5022092,0.005042900000000000,SE10 0ES
Starbucks,Bexley,Starbucks,"Norman Rd, London DA17 6FD, United Kingdom",51.49702,0.15503,DA17 6FD
Starbucks,Brent,Starbucks Coffee,"Brent Cross Shopping Centre, Prince Charles Dr, Brent Cross, London NW4 3FG, United Kingdom",51.57616,-0.22449,NW4 3FQ
Starbucks,Brent,Starbucks Coffee,"Engineers Way, Wembley Park, Wembley HA9 0FJ, United Kingdom",51.5586796,-0.2820103,HA9 0FJ
Starbucks,Brent,Starbucks,"195 W Hendon Broadway, London NW9 7DE, United Kingdom",51.5781036,-0.2404353,NW9 7DE
Starbucks,Brent,Starbucks,"Olympic Way, Wembley Park, Wembley HA9 0FR, United Kingdom",51.55985,-0.27928,HA9 0FR
Starbucks,Brent,Starbucks Coffee,"201A W End Ln, London NW6 2LJ, United Kingdom",51.5477529,-0.191159,NW6 2LJ
Starbucks,Bromley,Starbucks Coffee,"25 Market Square, Bromley BR1 1NA, United Kingdom",51.40556000000000,0.01556,BR1 1NA
Starbucks,Camden,Starbucks Coffee,"4/6 Parkway, London NW1 7AA, United Kingdom",51.5389594,-0.1432895,NW1 7AA
Starbucks,Camden,Starbucks,"253 Camden High St, London NW1 8NJ, United Kingdom",51.5403897,-0.1440367,NW1 8NJ
Starbucks,Croydon,Starbucks Coffee,"Centrale Shopping Centre, Tamworth Rd, Croydon CR0 1TY, United Kingdom",51.37527,-0.10202,CR0 1TY
Starbucks,Croydon,Starbucks,"26 Dingwall Rd, Croydon CR0 9XF, United Kingdom",51.37635,-0.09545,CR0 9XF
Starbucks,Croydon,Starbucks,"Unit 2 10 Degrees, 100A George St, East, Croydon, United Kingdom",51.37443,-0.09381000000000000,CR0 1PJ
Starbucks,Croydon,Starbucks Coffee,"Station Approach, Croydon CR0 1LF, United Kingdom",51.376133,-0.0930154,CR0 1LF
Starbucks,Croydon,Starbucks,"330 Purley Way, Croydon CR0 4XJ, United Kingdom",51.37202,-0.11885,CR0 4XJ
Starbucks,Ealing,Starbucks Coffee,"11-12 The Grn, London W5 5DA, United Kingdom",51.51101,-0.30518,W5 5DA
Starbucks,Ealing,Starbucks Coffee,"The Broadway, London W5 2NT, United Kingdom",51.5148,-0.30255,W5 2NT
Starbucks,Ealing,Starbucks Coffee,"433-435 Uxbridge Rd, London W5 3NT, United Kingdom",51.50988,-0.28726,W5 3NT
Starbucks,Enfield,Starbucks Coffee,"7 Church St, Enfield EN2 6AF, United Kingdom",51.65228,-0.08344,EN2 6AE
Starbucks,Greenwich,Starbucks Coffee,"54-56 Greenwich Church St, London SE10 9BL, United Kingdom",51.48211,-0.00987,SE10 9BL
Starbucks,Hackney,Starbucks Coffee,"Montfichet Rd, London E20 1EJ, United Kingdom",51.54265000000000,-0.00551,E20 1EN
Starbucks,Hackney,Starbucks Coffee,"Montfichet Rd, London E20 1EJ, United Kingdom",51.54349000000000,-0.00636,E20 1EH
Starbucks,Hackney,Starbucks Coffee,"Wells Terrace, Finsbury Park, London N4 3JU, United Kingdom",51.5654,-0.10796,N4 3JP
Starbucks,Hackney,Starbucks Coffee,"250 Upper St, London N1 1RU, United Kingdom",51.54545,-0.1034,N1 1RU
Starbucks,Hackney,Starbucks,"2 Station Pl, Finsbury Park, London N4 2DH, United Kingdom",51.56449200000000,-0.1057577,N4
Starbucks,Hackney,Starbucks,"1 Ashley Rd, London N17 9LJ, United Kingdom",51.58911000000000,-0.06154,N17 9LJ
Starbucks,Hackney,Starbucks,"448 Holloway Rd, London N7 6QA, United Kingdom",51.55771,-0.11887,N7 6QA
Starbucks,Hackney,Starbucks,"Myrtle Rd, London E6 1HY, United Kingdom",51.53432,0.05228,E6 1FD
Starbucks,Hackney,Starbucks,"23 Forest Rd, London E17 6HW, United Kingdom",51.5871723,-0.0423502,E17 6HW
Starbucks,Hackney,Starbucks Coffee,"474 Caledonian Rd, London N7 8TB, United Kingdom",51.5484778,-0.1178211,N7 8TB
Starbucks,Hackney,Starbucks,"Arthur Edwards Building, London E15 4NQ, United Kingdom",51.5445723,0.009845,E15 4NQ
Starbucks,Hackney,Starbucks Coffee,"The Brunswick Brunswick Centre, London WC1N 1AW, United Kingdom",51.52393,-0.12334,WC1N 1AW
Starbucks,Hackney,Costa Coffee,"Unit 1A, Kingsland Shopping Centre, London E8 2LX, United Kingdom",51.5477,-0.073446,E8 2LX
Starbucks,Hackney,Starbucks,"143 Charing Cross Rd, London W1D 3BG, United Kingdom",51.5158733,-0.1304828,W1D 3BG
Starbucks,Hammersmith and Fulham,Starbucks Coffee,"Unit 36, 36 Hammersmith Broadway, London W6 9YE, United Kingdom",51.49278,-0.22439,W6
Starbucks,Hammersmith and Fulham,Starbucks,"71 King St, London W6 9HY, United Kingdom",51.49254000000000,-0.22802,W6 9HY
Starbucks,Hammersmith and Fulham,Starbucks Coffee,"200 Hammersmith Rd, London W6 7DL, United Kingdom",51.49319000000000,-0.22154,W6 7DL
Starbucks,Hammersmith and Fulham,Starbucks Coffee,"Fulham Rd., London SW6 1BY, United Kingdom",51.48039,-0.19438,SW6 1BW
Starbucks,Hammersmith and Fulham,Starbucks Coffee,"44-48 New Kings Rd, London SW6 4LS, United Kingdom",51.47271,-0.20081,SW6 4LS
Starbucks,Hammersmith and Fulham,Starbucks Coffee,"220 Fulham Palace Rd, London W6 9NT, United Kingdom",51.4840168,-0.2197971,W6 9NT
Starbucks,Haringey,Starbucks Coffee,"1 Junction Rd, Archway, London N19 5QT, United Kingdom",51.56537000000000,-0.13438,N19 5QT
Starbucks,Haringey,Starbucks Coffee,"5-7 S End Rd, London NW3 2PT, United Kingdom",51.55420000000000,-0.16576,NW3 2PT
Starbucks,Haringey,Starbucks Coffee,"9 Golders Green Rd, London NW11 8DY, United Kingdom",51.5718059,-0.195967,NW11 8DY
Starbucks,Haringey,Laptop Coffee Shop,"Gladstone House, 1 Gladstone Ave, London N22 6JS, United Kingdom",51.5963763,-0.108807,N22 6JS
Starbucks,Haringey,Starbucks Coffee,"175 Tottenham Ct Rd, London W1T 7NU, United Kingdom",51.5224442,-0.1358776,W1T 7NS
Starbucks,Haringey,Starbucks Coffee,"57 England's Ln, Belsize Park, London NW3 4YD, United Kingdom",51.54541,-0.16269,NW3 4YD
Starbucks,Haringey,Starbucks Coffee,"79 St John's Wood High St, London NW8 7NL, United Kingdom",51.5339,-0.1714,NW8 7NL
Starbucks,Harrow,Starbucks Coffee,"Kymberley Rd, Harrow HA1 1HS, United Kingdom",51.58148,-0.33883,HA1 1HS
Starbucks,Havering,Starbucks Coffee,"142 High St, Hornchurch RM12 6QX, United Kingdom",51.56221,0.22004,RM12 6QX
Starbucks,Havering,Starbucks Coffee,"1, 15 The Brewery Walk, Romford RM1 1AU, United Kingdom",51.57627,0.18111,RM1 1AU
Starbucks,Havering,Starbucks Coffee,"Western Rd, Romford RM1 3RL, United Kingdom",51.57848,0.18347,RM1 3RL
Starbucks,Hillingdon,Starbucks,"8 Uxbridge Rd, Uxbridge UB10 0LG, United Kingdom",51.53266000000000,-0.45308,UB10 0LG
Starbucks,Hillingdon,Starbucks Heathrow North,"Shepiston Ln, Hayes UB3 1LL, United Kingdom",51.49569,-0.44479,UB3 1RN
Starbucks,Hillingdon,Starbucks Coffee,"High St, Uxbridge UB8 1GB, United Kingdom",51.54585000000000,-0.47845,UB8 1LA
Starbucks,Hillingdon,Starbucks Coffee,"Glencoe Rd, Hayes UB4 9SN, United Kingdom",51.52412,-0.38908,UB4 9BS
Starbucks,Hillingdon,Starbucks,"145-147 High St, Rickmansworth WD3 1AR, United Kingdom",51.639084,-0.471346,WD3 1AR
Starbucks,Hillingdon,Starbucks Coffee,"The Old Dairy, Victoria Rd, London HA4 0EJ, United Kingdom",51.5594,-0.4004,HA4 0FY
Starbucks,Hounslow,Starbucks,"12 High St, Hounslow TW3 1BD, United Kingdom",51.47008,-0.36172,TW3 1GA
Starbucks,Hounslow,Starbucks,"3 Smithy Ln, Hounslow TW3 1EY, United Kingdom",51.46999150000000,-0.3617016,TW3 1BQ
Starbucks,Hounslow,Starbucks Coffee,"198 High St, Hounslow TW3 1HL, United Kingdom",51.4688537,-0.3626877,TW3 1HL
Starbucks,Hounslow,Starbucks Coffee,"9 Bath Rd, Hounslow TW6 2AA, United Kingdom",51.48103,-0.41927,TW6 2AA
Starbucks,Islington,Starbucks Coffee,"7 Islington High St, London N1 9LQ, United Kingdom",51.53244000000000,-0.10651,N1 9LQ
Starbucks,Islington,Starbucks Coffee,"30 Upper St, London N1 0PN, United Kingdom",51.534523,-0.10531,N1 0PN
Starbucks,Kensington and Chelsea,Starbucks Coffee,"25a Kensington High St, London W8 5NP, United Kingdom",51.50227,-0.18857,W8 5NP
Starbucks,Kensington and Chelsea,Starbucks Coffee,"19 Old Brompton Rd, South Kensington, London SW7 3HZ, United Kingdom",51.49353,-0.17472,SW7 3HZ
Starbucks,Kensington and Chelsea,Starbucks Coffee,"83 Gloucester Rd, South Kensington, London SW7 4SS, United Kingdom",51.49449000000000,-0.18238,SW7 4SS
Starbucks,Kensington and Chelsea,Starbucks Coffee,"44-48 Brompton Rd, London SW3 1BW, United Kingdom",51.50049,-0.16259,SW3 1BW
Starbucks,Kensington and Chelsea,Starbucks Coffee,"27 Gloucester Rd, South Kensington, London SW7 4PL, United Kingdom",51.49796,-0.1836,SW7 4PL
Starbucks,Kensington and Chelsea,Starbucks Coffee,"369 Fulham Rd., London SW10 9TR, United Kingdom",51.48507,-0.1821,SW10 9NG
Starbucks,Kensington and Chelsea,Starbucks,"203 Earls Ct Rd, London SW5 9AN, United Kingdom",51.49201,-0.19232,SW5 9AN
Starbucks,Kensington and Chelsea,Starbucks Coffee,"New Retail Unit, London SW3 1ED, United Kingdom",51.50137000000000,-0.16124,SW3 1ED
Starbucks,Kensington and Chelsea,Starbucks Coffee,"Chantrey House, 98 Buckingham Palace Rd, London SW1W 0SS, United Kingdom",51.49429,-0.14688,SW1W 0SS
Starbucks,Kensington and Chelsea,Starbucks cafe,"17a Scarsdale Pl, London W8 5SY, United Kingdom",51.4989224,-0.1917635,W8 5SY
Starbucks,Kensington and Chelsea,Starbucks Coffee,"49 Queensway, London W2 4QH, United Kingdom",51.51172,-0.18765,W2 4QH
Starbucks,Kensington and Chelsea,Starbucks,"225 Circus Rd S, Nine Elms, London SW11 8BZ, United Kingdom",51.481823,-0.144362,SW11 8BZ
Starbucks,Kensington and Chelsea,Starbucks Coffee,"Elizabeth St, London SW1W 9TP, United Kingdom",51.4922842,-0.1482232,SW1W 9RH
Starbucks,Kensington and Chelsea,Starbucks Coffee,"26 Pembridge Rd, Notting Hill Gate, London W11 3HL, United Kingdom",51.509785,-0.1971541,W11 3HL
Starbucks,Kensington and Chelsea,Starbucks Coffee,"227 Portobello Rd, London W11 1LT, United Kingdom",51.51683,-0.2059,W11 1LT
Starbucks,Kensington and Chelsea,Starbucks Coffee,"Main Entrance, Victoria Railway Station, London SW1V 1JU, United Kingdom",51.49573180000000,-0.1446502,SW1E 5ND
Starbucks,Kensington and Chelsea,Starbucks Coffee,"15 Victoria St, London SW1V 1JU, United Kingdom",51.49586,-0.14441,SW1V 1JU
Starbucks,Kensington and Chelsea,"Starbucks Coffee, Platform 16","Victoria Railway Station, London SW1V 1JU, United Kingdom",51.4947528,-0.1456884,SW1W 9SJ
Starbucks,Kensington and Chelsea,Starbucks,"Praed St, London W2 1DL, United Kingdom",51.51652,-0.17483,W2 1DL
Starbucks,Kensington and Chelsea,Starbucks Coffee,"Buckingham Palace Rd, London SW1V 1JT, United Kingdom",51.49519,-0.14509,SW1W 0SR
Starbucks,Kensington and Chelsea,Starbucks Coffee,"1 Ariel Way, London W12 7GE, United Kingdom",51.507915,-0.22129,W12 7GE
Starbucks,Kensington and Chelsea,Starbucks,"Platform 1&2, Baker Street Underground Station, Marylebone Rd, London NW1 5LA, United Kingdom",51.5231548,-0.156863,NW1 5LJ
Starbucks,Kensington and Chelsea,Starbucks Coffee,"15 Sheldon Square, London W2 6PY, United Kingdom",51.51942,-0.17948,W2 6PY
Starbucks,Kensington and Chelsea,Starbucks,"Unit 2122, London W12 7GE, United Kingdom",51.507434,-0.223091,W12 7GE
Starbucks,Kingston upon Thames,Starbucks Coffee,"91 Clarence St, London KT1 1QY, United Kingdom",51.41088,-0.30168,KT1 1NP
Starbucks,Kingston upon Thames,Starbucks Coffee,"The Bentall Centre, Wood St, Kingston upon Thames KT1 1TR, United Kingdom",51.41166,-0.30386,KT1 1SZ
Starbucks,Lambeth,Starbucks Coffee,"2 S Lambeth Rd, London SW8 1SP, United Kingdom",51.48563,-0.12364,SW8 1SP
Starbucks,Lambeth,Starbucks Coffee,"62 Wandsworth Rd, Nine Elms, London SW8 2LF, United Kingdom",51.48045,-0.12821,SW8
Starbucks,Lambeth,Starbucks,"17 Casson Sq, London SE1 7BQ, United Kingdom",51.5038198,-0.116317,SE1 7BQ
Starbucks,Lambeth,Starbucks Coffee,"27 Victoria St, London SW1H 0EX, United Kingdom",51.49812,-0.13267,SW1H 0EX
Starbucks,Lambeth,Starbucks Coffee,"Streatham Hill, London SW2 4RS, United Kingdom",51.4389465,-0.1265892,SW2 4RU
Starbucks,Lambeth,Starbucks Coffee,"40-42 Old Town, London SW4 0LB, United Kingdom",51.4637748,-0.1419369,SW4 0LB
Starbucks,Lambeth,Starbucks Coffee,"17 Broadway, London SW1H 0AZ, United Kingdom",51.499107,-0.133562,SW1H 0AZ
Starbucks,Lambeth,Starbucks Coffee,"202-204 Clapham High St, London SW4 7UD, United Kingdom",51.46204000000000,-0.13818,SW4 7UD
Starbucks,Lewisham,Starbucks Coffee,"Molesworth St, London SE13 7HB, United Kingdom",51.46191,-0.01269,SE13 5JZ
Starbucks,Merton,Starbucks,"1 Merton High St, London SW19 1DD, United Kingdom",51.41477,-0.18073,SW19 1DD
Starbucks,Merton,Starbucks,"1 Morden Rd, London SW19 3DB, United Kingdom",51.41548,-0.19211,SW19 3DB
Starbucks,Merton,Starbucks Coffee,"High Street Colliers Wood, London SW19 2PT, United Kingdom",51.4136161,-0.1778127,SW19 2TY
Starbucks,Merton,Starbucks Coffee,"Unit 5, 10 Wimbledon Hill Rd, London SW19 7NS, United Kingdom",51.421162,-0.2076372,SW19 7PA
Starbucks,Merton,Starbucks,"Plough Ln, London SW17 0BH, United Kingdom",51.4310584,-0.1843636,SW17 0UJ
Starbucks,Merton,Starbucks Coffee,"Coombe Ln, Raynes Park, London SW20 0JY, United Kingdom",51.4094096,-0.2300334,SW20 8NE
Starbucks,Merton,Starbucks Coffee,"Platform 7, 8 The Bridge, London SW19 7NL, United Kingdom",51.4215008,-0.2056473,SW19 7NL
Starbucks,Merton,Starbucks,"Wimbledon Hill Rd, London SW19 7NL, United Kingdom",51.42174,-0.20532,SW19 8YE
Starbucks,Merton,Starbucks Coffee,"2 Mitcham Rd, London SW17 9ND, United Kingdom",51.4276261,-0.1676659,SW17 9ND
Starbucks,Merton,Starbucks,"125 129 High St, New Malden KT3 4BH, United Kingdom",51.39956,-0.25588,KT3 4BH
Starbucks,Merton,Starbucks Coffee,"515 Garratt Ln, London SW18 4SW, United Kingdom",51.4419195,-0.1875731,SW18 4SW
Starbucks,Newham,Starbucks,"23 Major Draper St, Royal Arsenal, London SE18 6ZF, United Kingdom",51.4923629,0.0707874,SE18 6ZF
Starbucks,Newham,Starbucks Coffee,"88 High Rd, Ilford IG1 1DN, United Kingdom",51.55862,0.07172000000000000,IG1 1DS
Starbucks,Newham,Costa Coffee,"Unit 1 & 2, Booking Hall, Station E16 1DQ, United Kingdom",51.51381,0.008290000000000000,E16
Starbucks,Newham,Starbucks Coffee,"George Ln, London E18 1AN, United Kingdom",51.59242,0.02715,E18 1AN
Starbucks,Redbridge,Starbucks,"225 High Rd, Ilford IG1 1LX, United Kingdom",51.55974,0.07626,IG1 1LX
Starbucks,Richmond upon Thames,Starbucks Coffee,"Lower Richmond Rd., Richmond TW9 4LT, United Kingdom",51.46678,-0.28645,TW9 4LT
Starbucks,Richmond upon Thames,Starbucks Coffee,"Station Parade, Richmond TW9 3PS, United Kingdom",51.4774,-0.28637,TW9 3PS
Starbucks,Richmond upon Thames,Starbucks,"86 London Rd, Twickenham TW1 1FD, United Kingdom",51.4502286,-0.3306381,TW1 1FD
Starbucks,Richmond upon Thames,Starbucks Coffee,"21 King St, Twickenham TW1 3SD, United Kingdom",51.44666000000000,-0.32836,TW1 3SD
Starbucks,Richmond upon Thames,Starbucks Coffee,"Kew Rd, Richmond TW9 2NQ, United Kingdom",51.46365000000000,-0.30215,TW9 2RD
Starbucks,Southwark,Starbucks,"263d New Cross Rd, London SE14 5UQ, United Kingdom",51.476862,-0.0422621,SE14 5UQ
Starbucks,Southwark,Starbucks Coffee,"80 Dog Kennel Hill, London SE22 8AA, United Kingdom",51.46187,-0.08458,SE22 8BB
Starbucks,Southwark,Starbucks Coffee,"The Gallery, Sumner St, London SE1 9TG, United Kingdom",51.50648,-0.09995,SE1 9JZ
Starbucks,Sutton,Starbucks Coffee,"174 High St, Sutton SM1 1LX, United Kingdom",51.36385810000000,-0.193281,SM1 1LX
Starbucks,Sutton,Starbucks Coffee,"566 London Rd, Sutton SM3 9AA, United Kingdom",51.37211,-0.2257,SM3 9AA
Starbucks,Wandsworth,Starbucks Coffee,"83 Wandsworth High St, London SW18 4LH, United Kingdom",51.45669000000000,-0.19308,SW18 2PR
Costa Coffee,City of London,Costa Coffee,"Unit R5, The Concourse, Liverpool Street Station, London EC2M 7PY, United Kingdom",51.518697,-0.081451,EC2M 7PY
Costa Coffee,City of London,Costa Coffee,"Fenchurch Street station, Fenchurch Pl, London EC3M 4AJ, United Kingdom",51.51174,-0.0789,EC3M 4AJ
Costa Coffee,City of London,Costa Coffee,"Units 14, 15 Bishops Square, London E1 6EG, United Kingdom",51.519258,-0.078223,E1 6EG
Costa Coffee,City of London,Costa Coffee,"Tower Vaults, The Cafe, London EC3N 4EE, United Kingdom",51.50906,-0.078469,EC3N 4EE
Costa Coffee,City of London,Costa Coffee,"126 Cannon St, London EC4N 6AS, United Kingdom",51.51088,-0.087004,EC4N 6AS
Costa Coffee,City of London,Costa Coffee,"Kiosk, City, Thameslink St, London EC4M 7JH, United Kingdom",51.514019,-0.103456,EC4M 7JH
Costa Coffee,City of London,Costa Coffee,"9 Eldon St, London EC2M 7LS, United Kingdom",51.518641,-0.08529100000000000,EC2M 7LS
Costa Coffee,City of London,Costa Coffee,"Unit 6, CityPoint, London EC2Y 9HR, United Kingdom",51.519682,-0.08934600000000000,EC2Y 9AW
Costa Coffee,City of London,Costa Coffee,"126 Whitechapel High St, Aldgate, London E1 7PU, United Kingdom",51.515033,-0.072946,E1 7PT
Costa Coffee,City of London,Costa Coffee,"UE, 7 More London Pl, Tooley St, PI SE1 2AF, United Kingdom",51.504211,-0.081485,SE1 2AF
Costa Coffee,City of London,Costa Coffee,"1 Aldgate, London EC3N 1RE, United Kingdom",51.51320700000000,-0.07715800000000000,EC3N 1RE
Costa Coffee,City of London,Costa Coffee,"Tower Thistle Hotel London, St Katharine's Way, London E1W 1LD, United Kingdom",51.50673,-0.07330000000000000,E1W 1LD
Costa Coffee,City of London,Costa Coffee,"68 Goswell Rd., London EC1M 7AD, United Kingdom",51.52327,-0.09815,EC1M 7AD
Costa Coffee,City of London,Costa Coffee,"3 Southwark St, London SE1 1RQ, United Kingdom",51.504646,-0.09084500000000000,SE1 1RQ
Costa Coffee,City of London,Costa Coffee,"Unit RS370, 15 Cabot Sq, London E14 4QT, United Kingdom",51.505306,-0.022153,E14 4QT
Costa Coffee,City of London,Costa,"London WC2N 5NG, United Kingdom",51.508033,-0.125299,WC2N 5HS
Costa Coffee,City of London,Costa Coffee,"Queen Mary Innovation Centre, London E1 2AX, United Kingdom",51.516321,-0.061815,E1 2AX
Costa Coffee,City of London,Costa Coffee,"Unit 20-21, Hay’s Galleria, Counter St, London SE1 2HD, United Kingdom",51.505823,-0.08325700000000000,SE1 2HD
Costa Coffee,City of London,Costa Coffee,"111 Guilford St, London WC1N 1DP, United Kingdom",51.52573,-0.116152,WC1X 0HD
Costa Coffee,City of London,Costa Coffee,"226 High Holborn, London WC1V 7DZ, United Kingdom",51.517567,-0.120074,WC1V 7DZ
Costa Coffee,City of London,Costa Coffee,"275 Whitechapel Rd, London E1 1BY, United Kingdom",51.519375,-0.05977900000000000,E1 1BY
Costa Coffee,City of London,Costa Coffee,"39 Shelton St, London WC2H 9HJ, United Kingdom",51.51412700000000,-0.12465,WC2H 9HJ
Costa Coffee,City of London,Costa,"Kings Bench Walk, Temple, London EC4Y 7EL, United Kingdom",51.5129256,-0.1093112,EC4Y 7DE
Costa Coffee,City of London,Costa Coffee,"Kean House, London WC2B 6UN, United Kingdom",51.513611,-0.118056,WC2B 6UN
Costa Coffee,City of London,Costa Coffee,"Moorefield Eye Hospital, London EC1V 2PD, United Kingdom",51.52762,-0.08988,EC1V 2PD
Costa Coffee,City of London,Costa Coffee,"34 London Wall, London EC2M 5QX, United Kingdom",51.517445,-0.089124,EC2M 5QX
Costa Coffee,City of London,Costa Coffee,"Platform 2, Blackfriars Station, London EC4V 4DY, United Kingdom",51.511064,-0.103353,EC4V 4DY
Costa Coffee,City of London,Costa Coffee,"118 Westminster Bridge Rd, London SE1 7XE, United Kingdom",51.499076,-0.11244,SE1 7UR
Costa Coffee,City of London,Costa Coffee,"5 High Holborn, London WC1V 6DR, United Kingdom",51.518423,-0.111654,WC1V 6DR
Costa Coffee,City of London,Costa Coffee,"Bridge, Station, Approach Rd, London SE1 9SP, United Kingdom",51.5039624,-0.08540180000000000,SE1 3QX
Costa Coffee,City of London,Costa Coffee,"134-138 Borough High St, London SE1 1LB, United Kingdom",51.50253800000000,-0.092405,SE1 1LB
Costa Coffee,City of London,Costa Coffee,"Farringdon Station, 46 Cowcross St, London EC1M 6BY, United Kingdom",51.520036,-0.105221,EC1M 6BP
Costa Coffee,City of London,Costa Coffee,"15 Regent St., London SW1Y 4LR, United Kingdom",51.50873500000000,-0.134101,SW1Y 4LR
Costa Coffee,City of London,Costa Coffee,"86 Hatton Garden, London EC1N 8QQ, United Kingdom",51.519718,-0.108447,EC1N 8QQ
Costa Coffee,City of London,Costa Coffee,"Unit 3, 160 Blackfriars Rd, London SE1 8EZ, United Kingdom",51.501284,-0.104351,SE1 8EN
Costa Coffee,City of London,Costa Coffee,"37 Southampton St, London WC2E 7HG, United Kingdom",51.510712,-0.121901,WC2E 7HA
Costa Coffee,City of London,Costa Coffee,"St Thomas Hospital, Westminster Bridge Rd, London SE1 7EH, United Kingdom",51.497991,-0.118921,SE1 7EH
Costa Coffee,City of London,Costa Coffee,"79 Tottenham Ct Rd, London W1T 4TB, United Kingdom",51.5209654,-0.1348854,W1T 4TB
Costa Coffee,City of London,Costa Coffee,"42-48 The Cut, London SE1 8LP, United Kingdom",51.503423,-0.106688,SE1 8LP
Costa Coffee,City of London,Costa coffee,"137b Grays Inn Rd, London WC1X 8TU, United Kingdom",51.5243994,-0.1161787,WC1N 1DP
Costa Coffee,City of London,Costa Coffee,"ExCel, Royal Victoria Dock, London E16 1XL, United Kingdom",51.508208,0.026917,E16 1XL
Costa Coffee,City of London,Costa Coffee,"Opposite Pla Waterloo Station, Station Concourse, London SE1 7LY, United Kingdom",51.502063,-0.114709,SE1 7NN
Costa Coffee,City of London,Costa Coffee,"22-24 Leicester Square, London WC2H 7JY, United Kingdom",51.5105,-0.129314,WC2H 7JY
Costa Coffee,City of London,Costa Coffee,"Unit M1, West Side, London N1C 4AP, United Kingdom",51.531335,-0.124689,N1C 4AP
Costa Coffee,City of London,Costa Coffee,"11 Argyll St, London W1F 7TX, United Kingdom",51.514843,-0.140754,W1F 7TH
Costa Coffee,City of London,Costa Coffee,"4 Great Portland St, London W1W 8QJ, United Kingdom",51.515883,-0.140724,W1W 8QJ
Costa Coffee,City of London,Costa Coffee,"112 Southampton Row, London WC1B 4BL, United Kingdom",51.5205,-0.122636,WC1B 4BL
Costa Coffee,City of London,Costa Coffee,"104 New Oxford St, London WC1A 1HB, United Kingdom",51.51676,-0.128577,WC1A 1DG
Costa Coffee,City of London,Costa Coffee,"Odeon Cinema, Central Cross, 30 Tottenham Ct Rd, London W1T 1BX, United Kingdom",51.5185471,-0.132378,W1T 1BY
Costa Coffee,City of London,Costa Pronto,"Bridge, London Bridge Station, Station Approach, London RdLondonSE1 9SP, United Kingdom",51.5042625,-0.0848024,SE1 9SP
Costa Coffee,City of London,Costa Coffee,"Vauxhall Railway Station, Concourse, London SW8 1SS, United Kingdom",51.486114,-0.122795,SW8 1SS
Costa Coffee,City of London,Costa Coffee,"26 - 30 York Wy, London N1 9AA, United Kingdom",51.5319959,-0.1222403,N1 9AA
Costa Coffee,City of London,Costa Coffee,"17 Embankment Pl, London WC2N 6NN, United Kingdom",51.507261,-0.122895,WC2N 6NN
Costa Coffee,City of London,Costa Coffee,"556 Mile End Rd, Bow, London E3 4PL, United Kingdom",51.524606,-0.03532800000000000,E3 4PL
Costa Coffee,City of London,Costa Coffee,"Unit SU0017, The Arcade, Lower Ground, Floor E20 1EH, United Kingdom",51.5442,-0.0052,E20 1EQ
Costa Coffee,City of London,Costa Coffee,"14 Great Marlborough St, London W1F 7HP, United Kingdom",51.514568,-0.138887,W1F 7HP
Costa Coffee,City of London,Costa Coffee,"257-259 Grays Inn Rd, London WC1X 8QT, United Kingdom",51.529094,-0.120152,WC1X 8QT
Costa Coffee,City of London,Costa Coffee,"Unit 3 Kings Cross & St Pancra, Euston Rd., London N1 9AL, United Kingdom",51.530009,-0.124195,NW1 2SD
Costa Coffee,Barking and Dagenham,Costa Coffee,"62-64 Station Parade, Barking IG11 8EA, United Kingdom",51.53928880000000,0.0815414,IG11 8EA
Costa Coffee,Barking and Dagenham,Costa Coffee,"East, Drive Thru, Drive Thru, Unit 1C, London, Dagenham RM10 7FQ, United Kingdom",51.546207,0.167233,RM10 7TR
Costa Coffee,Barking and Dagenham,Costa Coffee,"Unit 9, Next, Gallions Reach Shopping Park, London E6 7ER, United Kingdom",51.51706000000000,0.08013000000000000,E6 7ER
Costa Coffee,Barking and Dagenham,Costa Coffee,"Costa Drive Thru, Beckton Triangle Retail Park, London E6 6LH, United Kingdom",51.5224096,0.0711576,E6 6LG
Costa Coffee,Barking and Dagenham,Costa Coffee Ilford 2,"24 Cranbrook Rd, Ilford IG1 4DL, United Kingdom",51.5593277,0.07045020000000000,IG1 4DL
Costa Coffee,Barking and Dagenham,Costa Coffee,"50 High St N, London E6 2HJ, United Kingdom",51.5345805,0.0534169,E6 2HJ
Costa Coffee,Barking and Dagenham,Costa Coffee,"Unit 2A, Goodmayes Retail Park, Romford RM6 4HX, United Kingdom",51.56777900000000,0.117017,RM6 4HX
Costa Coffee,Barnet,Costa Coffee,"118 High St, Chipping Barnet, Barnet EN5 5XQ, United Kingdom",51.654604,-0.201179,EN5
Costa Coffee,Barnet,Costa Coffee,"14 Western Parade, Great N Rd, New Barnet, Barnet EN5 1AD, United Kingdom",51.6457962,-0.1866333,EN5 1AD
Costa Coffee,Barnet,Costa Coffee,"282 E Barnet Rd, East Barnet Village, London EN4 8TD, United Kingdom",51.642518,-0.1632133,EN4 8RN
Costa Coffee,Barnet,Costa Coffee,"16 Station Parade, Barnet EN4 0DN, United Kingdom",51.648531,-0.147329,EN4 0DN
Costa Coffee,Barnet,Costa Coffee,"Medirest Services, General Hospital, Barnet EN5 3DJ, United Kingdom",51.65069,-0.21466,EN5 3DJ
Costa Coffee,Barnet,Costa Coffee,"Unit 2, Friern Bridge Retail Park, London N11 3PW, United Kingdom",51.6108,-0.143376,N11 3PW
Costa Coffee,Barnet,Costa Coffee,"1287 High Rd, London N20 9HS, United Kingdom",51.6309277,-0.1753933,N20 9HS
Costa Coffee,Barnet,Costa Coffee,"Unit 813 High Rd, London N12 8PR, United Kingdom",51.61650000000000,-0.177204,N12 8PR
Costa Coffee,Barnet,Costa Coffee,"Coppetts Centre, London N12 0SH, United Kingdom",51.607038,-0.15489,N12 0SH
Costa Coffee,Barnet,Costa Coffee,"356 Bowes Rd, Arnos Grove, London N11 1AN, United Kingdom",51.6162,-0.134482,N11 1AN
Costa Coffee,Barnet,Costa Coffee,"62-64 High Rd, London N2 5DU, United Kingdom",51.58895590000000,-0.1637388,N2 9PN
Costa Coffee,Barnet,Costa Coffee,"Unit 6E, Borehamwood Shopping Park, Borehamwood WD6 4PR, United Kingdom",51.656575,-0.277177,WD6 1BP
Costa Coffee,Barnet,Costa Coffee,"32 Ballards Ln, London N3 2BJ, United Kingdom",51.602338,-0.192098,N3 2HB
Costa Coffee,Bexley,Costa Coffee - Bexley,"14 Bexley High St, Bexley DA5 1AD, United Kingdom",51.44154590000000,0.147317,DA5 1AD
Costa Coffee,Brent,Costa Coffee,"Unit 8, Next, Brent Cross Retail Park, Brent Cross, London NW2 1LS, United Kingdom",51.5715324,-0.2247428,NW2 1LL
Costa Coffee,Brent,Costa Coffee,"Tilling Rd, Brent Cross, London NW2 1LP, United Kingdom",51.5745933,-0.2151239,NW2 1LZ
Costa Coffee,Brent,Costa Coffee,"Unit 6c, Staples Corner Retail Park, Brent Cross, London NW2 6LW, United Kingdom",51.569843,-0.230178,NW2 6LU
Costa Coffee,Brent,Costa Coffee,"291-293 Neasden Ln, Neasden, London NW10 1QR, United Kingdom",51.56009300000000,-0.252125,NW10 1QR
Costa Coffee,Brent,Costa Coffee,"Unit 1, Edition, 130 Colindale Ave, London NW9 4AX, United Kingdom",51.5944,-0.24993,NW9 4AX
Costa Coffee,Brent,Costa Coffee,"100 High St, London NW10 4SL, United Kingdom",51.53605050000000,-0.2453949,NW10 4SL
Costa Coffee,Brent,Costa Coffee,"Sainsbury's, Unit 4 Hyde Estate Rd, London NW9 6JX, United Kingdom",51.582073,-0.243989,NW9 6LP
Costa Coffee,Brent,Costa Coffee,"Unit 49, Wembley Park, Wembley HA9 0FD, United Kingdom",51.556807,-0.283032,HA9 0HP
Costa Coffee,Brent,Costa Coffee,"14 Central Circus, London NW4 3AS, United Kingdom",51.58310000000000,-0.226751,NW4 3AS
Costa Coffee,Brent,Costa Coffee,"173 Cricklewood Broadway, London NW2 3HY, United Kingdom",51.5565891,-0.215625,NW2 3HT
Costa Coffee,Brent,Costa Coffee,"19 Bridge Rd, Wembley Park, Wembley HA9 9AB, United Kingdom",51.564592,-0.277879,HA9 9AB
Costa Coffee,Brent,Costa Coffee,"219 Edgware Rd, London NW9 6LP, United Kingdom",51.5877,-0.252144,NW9 6LP
Costa Coffee,Brent,Brent South Shopping Park,"119 Brent Terrace, Brent Cross, London NW2 1LS, United Kingdom",51.5722679,-0.2246375,NW2 1LS
Costa Coffee,Brent,Costa Coffee,"7 Olympic Way, London HA9 0NP, United Kingdom",51.561087,-0.2791770000000000,HA9 0NP
Costa Coffee,Brent,Costa Coffee,"247 Preston Rd, Wembley, Harrow HA3 0PS, United Kingdom",51.571862,-0.294909,HA3 0PS
Costa Coffee,Brent,Costa Coffee,"Metropolitan Court, 40 High St, London NW10 2QD, United Kingdom",51.547542,-0.227383,NW10 2QD
Costa Coffee,Brent,Costa Coffee,"Costa Coffee, Place, Wembley HA9 6ES, United Kingdom",51.553478,-0.288728,HA9 6AQ
Costa Coffee,Brent,Costa Coffee,"Unit 4, Central, High Rd, Wembley HA9 7AJ, United Kingdom",51.552357,-0.296362,HA9 7AJ
Costa Coffee,Brent,Costa Coffee,"Drive Thru Alperton lane off, Western Ave, Perivale, Greenford UB6 8AA, United Kingdom",51.5322323,-0.3094825,UB6 8DH
Costa Coffee,Brent,Costa Coffee,"Kilburn Station, Shoot-Up Hill, London NW6 7QL, United Kingdom",51.5468959,-0.2042881,NW6 7QL
Costa Coffee,Brent,Costa Coffee,"203 W End Ln, London NW6 2LJ, United Kingdom",51.547814,-0.191188,NW6 2LJ
Costa Coffee,Brent,Costa Coffee,"The Burroughs, London NW4 4BT, United Kingdom",51.5897474,-0.2289878,NW4 4BD
Costa Coffee,Brent,Costa Coffee,"Unit 1, The Costume Store, Victoria Rd, North Acton, London W3 6UL, United Kingdom",51.523069,-0.259705,W3 6HU
Costa Coffee,Brent,Costa Coffee,"Sainsbury's, 2 Canal Way, London W10 5AA, United Kingdom",51.52631,-0.21727,W10 5AZ
Costa Coffee,Brent,Costa Coffee,"351 Harrow Rd, Maida Hill, London W9 3RA, United Kingdom",51.524078,-0.201567,W9 3RA
Costa Coffee,Brent,Costa Coffee,"388 Finchley Rd, London NW2 2HR, United Kingdom",51.56106340000000,-0.1969688,NW2 2HR
Costa Coffee,Brent,Costa Coffee,"Central Middlesex Hospital, Acton Ln, London NW10 7NS, United Kingdom",51.53153,-0.26873,NW10 7NS
Costa Coffee,Brent,Costa Coffee,"73 Kilburn High Rd, London NW6 6HY, United Kingdom",51.5375455,-0.1932414,NW6 6PR
Costa Coffee,Brent,Costa Express,"Petrol Filling Station, Honeypot Ln, London NW9 6RN, United Kingdom",51.5931335,-0.2857087,NW9 9DF
Costa Coffee,Brent,Costa Coffee,"51 Westbourne Grove, London W2 4UA, United Kingdom",51.51542,-0.190581,W2 4UA
Costa Coffee,Brent,Costa Coffee,"146-148 Burnt Oak Broadway, Burnt Oak, Edgware HA8 0AX, United Kingdom",51.60161,-0.2682305,HA8 0AX
Costa Coffee,Brent,Costa Coffee,"19 The Broadway, London NW7 3LN, United Kingdom",51.614248,-0.248652,NW7 3LN
Costa Coffee,Brent,Costa Coffee,"27 Temple Fortune Parade, London NW11 0QX, United Kingdom",51.583282,-0.199836,NW11 0QX
Costa Coffee,Brent,Costa Coffee,"624 Kingsbury Rd, Kingsbury Circle, London NW9 9HN, United Kingdom",51.5850731,-0.2793908,NW9 9HN
Costa Coffee,Bromley,Costa Coffee,"33-34 Market Square, Bromley BR1 1NF, United Kingdom",51.40564,0.015168,BR1 1NF
Costa Coffee,Bromley,Costa Coffee,"Unit 28, The Glades Shopping Centre, Bromley BR1 1DR, United Kingdom",51.4037,0.016433,BR1 1DD
Costa Coffee,Bromley,Costa Coffee,"147-151 Westmoreland Rd, Bromley BR2 0TZ, United Kingdom",51.392181,0.001099,BR2
Costa Coffee,Bromley,Costa Coffee,"51 Station Approach, Hayes, Bromley BR2 7EJ, United Kingdom",51.3762413,0.0112783,BR2 7EJ
Costa Coffee,Camden,Costa Coffee,"20 Chalk Farm Rd, Chalk Farm, London NW1 8AG, United Kingdom",51.54256000000000,-0.146532,NW1 8AG
Costa Coffee,Camden,Costa Coffee,"Units 1-2, 35 Camden Rd, London NW1 9LR, United Kingdom",51.541313,-0.139309,NW1 9LR
Costa Coffee,Camden,Costa Coffee,"181 Camden High St, London NW1 7JY, United Kingdom",51.53887600000000,-0.142407,NW1 0NE
Costa Coffee,Croydon,Costa Coffee,"129-131 N End, Croydon CR0 1TL, United Kingdom",51.376891,-0.102128,CR0 1TL
Costa Coffee,Croydon,Costa Coffee,"The Colonnades Leisure Park, Purley Way, Croydon CR0 4RQ, United Kingdom",51.355806,-0.115482,CR0 4RQ
Costa Coffee,Croydon,Costa Coffee,"Ground Floor, 11, Next, 19 N End, Croydon CR9 1RQ, United Kingdom",51.37396,-0.10223,CR0 1TB
Costa Coffee,Croydon,Costa Coffee,"1, Station Hall, Croydon CR0 1LF, United Kingdom",51.375021,-0.09299000000000000,CR0 1LF
Costa Coffee,Croydon,Costa Coffee Thornton Heath,"102 High St, Croydon CR7 8LF, United Kingdom",51.3989713,-0.0976556,CR7 8LF
Costa Coffee,Croydon,Costa Coffee,"Sainsbury's, Trafalgar Way, Croydon CR0 4XT, United Kingdom",51.37585,-0.11773,CR0 4XT
Costa Coffee,Croydon,Costa Coffee,"530 London Rd, Thornton Heath CR7 7YE, United Kingdom",51.38925,-0.1112,CR7 7YE
Costa Coffee,Croydon,Costa Coffee,"17 Central Parade, New Addington, Croydon CR0 0JB, United Kingdom",51.3420409,-0.0157792,CR0 0JD
Costa Coffee,Croydon,Costa Express,"87 Brighton Rd, South Croydon CR2 6EE, United Kingdom",51.3585317,-0.0974969,CR2 6EE
Costa Coffee,Croydon,Costa Coffee,"Croydon Rd, Elmers End, Beckenham BR3 4AA, United Kingdom",51.39652,-0.05013,BR3 4DW
Costa Coffee,Croydon,Costa Coffee,"1411-1413 London Rd, Norbury, London SW16 4AH, United Kingdom",51.408806,-0.122251,SW16 4AH
Costa Coffee,Croydon,Costa Coffee,"8 Purley Rd, Purley CR8 2HA, United Kingdom",51.336859,-0.1170409,CR8 2HA
Costa Coffee,Croydon,Costa Express,"174 Croydon Rd, Beddington, Wallington, Croydon CR0 4PJ, United Kingdom",51.3678586,-0.1314791,CR0 4PJ
Costa Coffee,Croydon,Costa Coffee,"251-253 Selhurst Rd, London SE25 6SX, United Kingdom",51.39818140000000,-0.0771993,SE25 6XP
Costa Coffee,Croydon,Costa Coffee,"25 Limpsfield Rd, South Croydon CR2 9LA, United Kingdom",51.334059,-0.076592,CR2 9LA
Costa Coffee,Croydon,Costa Coffee,"950 Brighton Rd, Purley CR8 2LP, United Kingdom",51.340003,-0.116005,CR8 2LP
Costa Coffee,Croydon,Costa Coffee,"194-202 High St, Beckenham BR3 1EN, United Kingdom",51.406799,-0.02828800000000000,BR3 1EN
Costa Coffee,Croydon,Costa Coffee,"172 Addington Rd, Selsdon, South Croydon CR2 8LB, United Kingdom",51.3437,-0.06180100000000000,CR2 8LB
Costa Coffee,Croydon,Costa Coffee,"Mall Cafe Unit CR0 1LP, United Kingdom",51.3769566,-0.1003644,CR0 1TY
Costa Coffee,Ealing,Costa Coffee,"The Broadway, London W5 2NU, United Kingdom",51.51490100000000,-0.301603,W5 2NU
Costa Coffee,Ealing,Costa Coffee,"92 S Ealing Rd, South Ealing, London W5 4QG, United Kingdom",51.5006847,-0.3067266,W5 4QG
Costa Coffee,Ealing,Costa Coffee,"70a The Broadway, London W13 0SY, United Kingdom",51.5103698,-0.3236606,W13 0SY
Costa Coffee,Ealing,Costa Coffee,"437a Uxbridge Rd, London W5 3NT, United Kingdom",51.50998,-0.28748,W5 3NT
Costa Coffee,Enfield,Costa Coffee,"Unit 8A, Enfield Retail Park, Enfield EN1 3RW, United Kingdom",51.65357600000000,-0.057318,EN1 1TH
Costa Coffee,Enfield,Costa Coffee,"Unit 1, NEXT, Enfield Retail Park, Enfield EN1 1TH, United Kingdom",51.65442000000000,-0.05900000000000000,EN1 1TH
Costa Coffee,Enfield,Costa Coffee,"163 Hertford Rd, Enfield EN3 5JG, United Kingdom",51.6579,-0.046995,EN3 5JG
Costa Coffee,Enfield,Costa Coffee,"26 Palace Gardens Shopping Cen EN2 6SN, United Kingdom",51.651112,-0.083898,EN2 6SN
Costa Coffee,Enfield,Costa Coffee,"288 High St, Ponders End, Enfield EN3 4DP, United Kingdom",51.64761,-0.04677,EN3 4HF
Costa Coffee,Greenwich,Costa Coffee,"Unit 3, Unit 3, London SE10 0PE, United Kingdom",51.50132200000000,0.005304,SE10 0EN
Costa Coffee,Greenwich,Costa Coffee,"Unit 3, 7 Lambarde Square, London SE10 9GB, United Kingdom",51.486112,0.009185000000000000,SE10 9GB
Costa Coffee,Greenwich,Costa Coffee,"9 Dreadnought Walk, London SE10 9FP, United Kingdom",51.482621,-0.015536,SE10 9EA
Costa Coffee,Greenwich,Costa Coffee,"Odeon Cinemas Ltd, Bugsby's Wy, London SE10 0QJ, United Kingdom",51.4909,0.01541,SE10 0QJ
Costa Coffee,Greenwich,Costa Coffee,"Unit C, 100 Blackheath Rd, London SE10 8DA, United Kingdom",51.4728483,-0.0174729,SE10 8DA
Costa Coffee,Greenwich,Costa Coffee,"Unit 8.0.8, ICON Outlet, The Millennium Dome Millennium Way, London SE10 0DX, United Kingdom",51.503276,0.002064,SE10 0DX
Costa Coffee,Greenwich,Costa Coffee,"395 Woolwich Rd, London SE7 7AJ, United Kingdom",51.487588,0.027557,SE7 7AJ
Costa Coffee,Greenwich,Costa Coffee,"Unit C, NEXT, 4 Brocklebank Rd, London SE7 7FR, United Kingdom",51.48878,0.02458,SE7 7SR
Costa Coffee,Greenwich,Costa Coffee,"Units A & B, Market House, 1 Giffin St, London SE8 4RJ, United Kingdom",51.47795,-0.025508,SE8 4RJ
Costa Coffee,Greenwich,Costa Coffee,"Unit 41, London SE13 7EP, United Kingdom",51.461855,-0.012037,SE13 7HB
Costa Coffee,Greenwich,Costa Coffee,"41 Tranquil Vale, Blackheath, London SE3 0BU, United Kingdom",51.466516,0.007582000000000000,SE3 0BU
Costa Coffee,Greenwich,Costa Coffee,"44-46 Greenwich Church St, London SE10 9BL, United Kingdom",51.4816261,-0.0099435,SE10 9BL
Costa Coffee,Hackney,Costa Coffee,"15 Amhurst Rd, London E8 1LL, United Kingdom",51.547513,-0.056192,E8 1LL
Costa Coffee,Hackney,Costa Coffee,"Gate 1, Chatters Food Court, Homerton Row, London E9 6SR, United Kingdom",51.5505,-0.04634,E9 6SR
Costa Coffee,Hackney,Costa Coffee,"130-133, Stoke Newington High St, London N16 0PJ, United Kingdom",51.560644,-0.074047,N16 0DE
Costa Coffee,Hackney,Costa Coffee,"Unit H, LEYTON MILLS, RP E10 5NH, United Kingdom",51.55557700000000,-0.008027,E10
Costa Coffee,Hackney,Costa Coffee,"554, 556 Roman Rd, Bow, London E3 5ES, United Kingdom",51.53281580000000,-0.0301754,E3 5ES
Costa Coffee,Hackney,Costa Coffee,"Unit 84, Broadway, London E15 1XQ, United Kingdom",51.5413767,0.0004321,E15 1XQ
Costa Coffee,Hackney,Costa Coffee,"251, 253 Seven Sisters Rd, Finsbury Park, London N4 2DD, United Kingdom",51.5644003,-0.1053693,N4 2DD
Costa Coffee,Hackney,Costa Coffee,"261 High Rd, South Tottenham, London N15 4RR, United Kingdom",51.5839769,-0.0725865,N15 4RR
Costa Coffee,Hackney,Costa Coffee,"301/305 Lower, Holloway Rd, London N5 1BU, United Kingdom",51.5532486,-0.1133801,N7 9DS
Costa Coffee,Hackney,Costa Coffee,"Unit E, London N15 4QD, United Kingdom",51.58757,-0.06335100000000000,N15 4QD
Costa Coffee,Hackney,Costa Coffee,"12 St James St, London E17 7PF, United Kingdom",51.5812207,-0.0334802,E17 7PF
Costa Coffee,Hackney,Costa Coffee,"Unit 4C, The Arena Shopping Pa, Finsbury Park, London N4 1ED, United Kingdom",51.576526,-0.097662,N4 1ED
Costa Coffee,Hammersmith and Fulham,Costa Coffee,"Medirest Contract Catering, Fulham Palace Rd, London W6 8RF, United Kingdom",51.48709000000000,-0.22071,W6
Costa Coffee,Hammersmith and Fulham,Costa Coffee,"Unit 24b, Broadway Shopping Cen, London W6 9YD, United Kingdom",51.491861,-0.223933,W6 9YD
Costa Coffee,Hammersmith and Fulham,Costa Coffee,"TESCO, Kiosk, 180 Shepherds Bush Rd, London W6 7NL, United Kingdom",51.49763,-0.22399,W6 7PA
Costa Coffee,Hammersmith and Fulham,Costa Coffee,"923 - 931 Fulham Rd., London SW6 5HY, United Kingdom",51.4724543,-0.2089362,SW6 5HY
Costa Coffee,Hammersmith and Fulham,Costa Coffee,"Sainsbury's, 27 Townmead Rd, London SW6 2GD, United Kingdom",51.467382,-0.18718,SW6 2GD
Costa Coffee,Hammersmith and Fulham,Costa Coffee,"Chelsea & Westminster Hospital, 369 Fulham Rd., London SW10 9NH, United Kingdom",51.48456600000000,-0.181896,SW10 0HH
Costa Coffee,Hammersmith and Fulham,Costa Coffee,"186 Earls Ct Rd, London SW5 9QG, United Kingdom",51.493042,-0.1943976,SW5 9QG
Costa Coffee,Hammersmith and Fulham,Costa Coffee,"270-272 Old Brompton Rd, London SW5 9HR, United Kingdom",51.489,-0.192101,SW5 9HR
Costa Coffee,Hammersmith and Fulham,Costa Coffee,"44, Kings Mall, King St, London W6 0PZ, United Kingdom",51.4931,-0.227843,W6 0PZ
Costa Coffee,Haringey,Costa Coffee,"349 Green Lanes, London N13 4JG, United Kingdom",51.6189,-0.107786,N13 4JG
Costa Coffee,Haringey,Costa Coffee,"1, London N8 0QY, United Kingdom",51.590483,-0.103713,N8 0QY
Costa Coffee,Haringey,Costa Coffee,"12 High Rd, London N22 6DS, United Kingdom",51.5945512,-0.1086469,N22 6YQ
Costa Coffee,Haringey,Costa Coffee,"Unit 29, London N22 6YQ, United Kingdom",51.59457,-0.10931,N22 6YQ
Costa Coffee,Haringey,Costa Coffee,"549 High Rd, London N17 6SB, United Kingdom",51.593,-0.069904,N17 6QA
Costa Coffee,Haringey,Costa Coffee,"Lon, Underground Stn N22 8HH, United Kingdom",51.59744,-0.10976,N22 8HH
Costa Coffee,Haringey,Costa Coffee,"Costa Coffee Kiosk Tottenham Hale Station, Station Rd, London N17 9LR, United Kingdom",51.5886009,-0.0599732,N17 9FD
Costa Coffee,Haringey,Costa Coffee,"Unit 1 Fore St Ave, London N18 2SL, United Kingdom",51.6113913,-0.0649592,N18 2FE
Costa Coffee,Haringey,Costa Coffee,"1 The Broadway, London N8 8DU, United Kingdom",51.578863,-0.12409,N8 8DU
Costa Coffee,Haringey,Costa Coffee,"Unit 4, North Mall, London N9 0EJ, United Kingdom",51.6248,-0.057382,N9 0EJ
Costa Coffee,Haringey,Costa Coffee,"North Middlesex Hospital, Sterling Way, London N18 1QX, United Kingdom",51.6131192,-0.073574,N18 1QX
Costa Coffee,Haringey,Costa Coffee,"35 Junction Rd, Archway, London N19 5QT, United Kingdom",51.5645775,-0.1347978,N19 5QT
Costa Coffee,Haringey,Costa Coffee,"376 Muswell Hill, London N10 1DJ, United Kingdom",51.59150900000000,-0.142437,N10 1DJ
Costa Coffee,Haringey,Costa Express,"A406, London N12 0SH, United Kingdom",51.607834,-0.030309,E4 8TX
Costa Coffee,Haringey,Costa Coffee,"11, 13 Golders Green Rd, London NW11 8HB, United Kingdom",51.57176,-0.19609,NW11 8DY
Costa Coffee,Haringey,Costa Coffee,"421 Green Lanes, Harringay Ladder, London N4 1EY, United Kingdom",51.5785919,-0.0991402,N4 1EY
Costa Coffee,Harrow,Costa Coffee,"76-80 St. Anns Rd, Harrow HA1 1JX, United Kingdom",51.581593,-0.337109,HA1 1JX
Costa Coffee,Harrow,Costa Coffee,"2, Tesco, Harrow HA1 2TU, United Kingdom",51.58619000000000,-0.33335,HA1 2TR
Costa Coffee,Harrow,Costa Coffee,"Northwick Park Hospital, Watford Rd, Harrow HA1 3UJ, United Kingdom",51.57564200000000,-0.322093,HA1 3UJ
Costa Coffee,Harrow,Costa Coffee,"112-114, High St, London HA3 7AJ, United Kingdom",51.5966367,-0.3352184,HA3 7AH
Costa Coffee,Harrow,Costa Coffee,"250 / 252 Northolt Rd, South Harrow, Harrow HA2 8HR, United Kingdom",51.5641113,-0.3544315000000000,HA2 8HR
Costa Coffee,Harrow,Costa Coffee,"8 Warwick Parade Kenton Ln, Harrow HA3 8SA, United Kingdom",51.6007,-0.3181,HA3 8SA
Costa Coffee,Havering,Costa Coffee,"83 South St, Romford RM1 1NL, United Kingdom",51.576536,0.182434,RM1 1NL
Costa Coffee,Havering,Costa coffee - Hornchurch 1,"94 High St, Hornchurch RM12 4UH, United Kingdom",51.5627116,0.2177801,RM12 4UH
Costa Coffee,Havering,Costa Coffee Hornchurch 2,"156, 158 High St, Hornchurch RM12 6QX, United Kingdom",51.5619914,0.2202529,RM12 6QX
Costa Coffee,Havering,Costa Coffee,"83 Main Rd, Gidea Park, Romford RM2 5EL, United Kingdom",51.58674450000000,0.2000625,RM2 5EL
Costa Coffee,Havering,Costa Coffee,"Unit 1 The Brewery Walk, Romford RM1 1AU, United Kingdom",51.577048,0.179618,RM1 1NL
Costa Coffee,Havering,Costa Coffee,"Unit 1, Drive Thru, Eastern Avenue Retail Park Car Park, Romford RM7 7EX, United Kingdom",51.583315,0.168068,RM7 7JJ
Costa Coffee,Havering,Costa Coffee Elm Park,"Unit B, New, Elm Park Hotel, Elm Park Ave, Hornchurch RM12 4RX, United Kingdom",51.55109180000000,0.1984054,RM12 4RX
Costa Coffee,Havering,Costa Coffee,"311 - 313 Collier Row Ln, Collier Row, Romford RM5 3ND, United Kingdom",51.59881440000000,0.1631231,RM5 3ND
Costa Coffee,Havering,Costa Coffee,"Queens Hospital (510025733, Romford RM7 0AG, United Kingdom",51.56896,0.1808,RM7 0BD
Costa Coffee,Havering,Costa Coffee,"34 Station Rd, Upminster RM14 2TR, United Kingdom",51.5575513,0.2499611,RM14 2TR
Costa Coffee,Havering,Costa Coffee,"Bryant Ave, Romford RM3 0LL, United Kingdom",51.59209,0.21994,RM3 0WB
Costa Coffee,Havering,Costa Coffee,"Next, Gallows Corner Retail Park, Romford RM3 0AD, United Kingdom",51.59234,0.21426,RM3 0AD
Costa Coffee,Havering,Costa Coffee,"73A High St, Brentwood CM14 4RW, United Kingdom",51.620205,0.301463,CM14 4RW
Costa Coffee,Havering,Costa Coffee,"Off A1306, Arterial Rd West Thurrock, Grays RM16 3BG, United Kingdom",51.4922514,0.2721637,RM16 3BG
Costa Coffee,Havering,Costa Coffee,"New Pod Unit, West Thurrock, Grays RM20 1WN, United Kingdom",51.485982,0.278831,RM20 1WN
Costa Coffee,Havering,Costa Coffee,"Unit 6, Riverside Shopping Centre, 21A Town Square, Erith DA8 1SE, United Kingdom",51.48031900000000,0.1805111,DA8 1RG
Costa Coffee,Havering,Costa Coffee,"54-56 Brentwood Rd, Hornchurch, Romford RM1 2EP, United Kingdom",51.5716954,0.1892219,RM1 2EP
Costa Coffee,Hillingdon,Costa Coffee,"1-2 Marlborough Parade, Uxbridge UB10 0LR, United Kingdom",51.530563,-0.447334,UB10 0LR
Costa Coffee,Hounslow,Costa Coffee,"241 High St, Hounslow TW3 1EA, United Kingdom",51.46842000000000,-0.36374,TW3 1EA
Costa Coffee,Hounslow,Costa Coffee,"108A High St, Hounslow TW3 1NA, United Kingdom",51.46975320000000,-0.358666,TW3 1NA
Costa Coffee,Hounslow,Costa Coffee,"15 Bath Rd, Hounslow TW6 2AB, United Kingdom",51.48,-0.4247222,TW6 2AB
Costa Coffee,Hounslow,Costa Coffee,"M4 Motorway J2/3, Hounslow TW5 9NB, United Kingdom",51.48850000000000,-0.396341,TW5 9NB
Costa Coffee,Hounslow,Costa,"Nelson Road, Hounslow TW6 2GW, United Kingdom",51.4601373,-0.448178,TW6 2GW
Costa Coffee,Hounslow,Costa Coffee,"M4 Eastbound, J 3/2, Hounslow TW5 9NA, United Kingdom",51.48850000000000,-0.387815,TW5 9NA
Costa Coffee,Islington,Costa Coffee,"366, 368 Caledonian Rd, London N1 1DU, United Kingdom",51.5415,-0.116836,N1 1DU
Costa Coffee,Islington,Costa Coffee,"465 Caledonian Rd, London N7 9BA, United Kingdom",51.548598,-0.117183,N7 8TY
Costa Coffee,Islington,Costa Coffee,"32 Chapel Market, London N1 9EN, United Kingdom",51.5336,-0.108006,N1 9EN
Costa Coffee,Islington,Costa Coffee,"117-119 Essex Rd, London N1 2SN, United Kingdom",51.539402,-0.098312,N1 2SL
Costa Coffee,Islington,Costa Coffee,"242 Upper St, London N1 1RU, United Kingdom",51.5450817,-0.10345,N1 1RU
Costa Coffee,Islington,Costa,"62 Upper St, London N1 0NY, United Kingdom",51.5357686,-0.104045,N1 0NY
Costa Coffee,Kensington and Chelsea,Costa Coffee,"380 Kensington High St, London W14 8NL, United Kingdom",51.4965315,-0.2067339,W14 8NL
Costa Coffee,Kensington and Chelsea,La costa cafe,"44 Craven Rd, London W2 3QA, United Kingdom",51.5136307,-0.1795359,W2 3QA
Costa Coffee,Kensington and Chelsea,Costa Coffee,"Unit 33, Station Concourse, The Lawn, London W2 1HB, United Kingdom",51.51597700000000,-0.176941,W2 1HU
Costa Coffee,Kensington and Chelsea,Costa Coffee,"Marble Arch, Bryanston St, London W1H 7EH, United Kingdom",51.513963,-0.155917,W1H 6DU
Costa Coffee,Kensington and Chelsea,Costa Coffee,"214 Uxbridge Rd, London W12 7JD, United Kingdom",51.5057159,-0.2268686,W12 7JD
Costa Coffee,Kensington and Chelsea,Costa Coffee,"115 Buckingham Palace Rd, London SW1V 1JT, United Kingdom",51.494591,-0.145473,SW1W 9SJ
Costa Coffee,Kingston upon Thames,Costa Coffee,"Unit L15, The Bentall Centre, Kingston upon Thames KT1 1TR, United Kingdom",51.41197,-0.30477,KT1 1TR
Costa Coffee,Kingston upon Thames,Costa Coffee,"34 Market Pl, Kingston upon Thames KT1 1JH, United Kingdom",51.40942100000000,-0.305954,KT1 1JH
Costa Coffee,Kingston upon Thames,Costa Coffee,"Hospital Nhs Trust, Hospital, Galsworthy Rd, Kingston upon Thames KT2 7QB, United Kingdom",51.414446,-0.281574,KT2 7BL
Costa Coffee,Kingston upon Thames,Costa Coffee,"422 Richmond Rd, Kingston upon Thames KT2 5PU, United Kingdom",51.43070000000000,-0.306871,KT2 5PU
Costa Coffee,Kingston upon Thames,Costa Kingston Road,"363-365 Kingston Rd, Wimbledon Chase, London SW20 8JX, United Kingdom",51.4095985,-0.2132419,SW20 8JX
Costa Coffee,Kingston upon Thames,Costa Coffee,"27 Victoria Rd, Surbiton KT6 4JZ, United Kingdom",51.392308,-0.306739,KT6 4JZ
Costa Coffee,Kingston upon Thames,Costa Coffee,"20 Richmond Rd, Kingston upon Thames KT2 5EB, United Kingdom",51.4129263,-0.3008813,KT2 5EB
Costa Coffee,Lambeth,Costa Coffee,"Underground Station, London SW9 9AE, United Kingdom",51.47239100000000,-0.122758,SW9 9AE
Costa Coffee,Lambeth,Costa Coffee,"Costa coffee B, Hambleden Wing, London SE5 9RS, United Kingdom",51.46803,-0.09369,SE5 9RS
Costa Coffee,Lambeth,Costa Coffee,"52-54 Denmark Hill, London SE5 8RZ, United Kingdom",51.472913,-0.093411,SE5 8RZ
Costa Coffee,Lambeth,Costa Coffee,"Costa coffee C Ruskin wing entrance, London SE5 9RS, United Kingdom",51.46826,-0.09198000000000000,SE5 9RS
Costa Coffee,Lambeth,Costa Coffee,"Costa coffee D, Golden Jubilee, London SE5 9RS, United Kingdom",51.46869,-0.0933,SE5 9RS
Costa Coffee,Lambeth,Costa Coffee,"34 Hargrave Park, Broadway, London SW1H 0BH, United Kingdom",51.49955200000000,-0.132664,SW1H 0BH
Costa Coffee,Lambeth,Costa Coffee,"Costa Cardinal Place 3 Cardina, London SW1E 5JE, United Kingdom",51.49706,-0.141089,SW1E 5JL
Costa Coffee,Lambeth,Costa Coffee,"Unit 1, 16 Balham Hill, London SW12 9DY, United Kingdom",51.452621,-0.147281,SW12 9DY
Costa Coffee,Lambeth,Costa Coffee,"Unit 1, Aylesham Centre, Rye Ln, London SE15 5EW, United Kingdom",51.473337,-0.069587,SE15 5BY
Costa Coffee,Lambeth,Costa Coffee,"59-61 Streatham High Rd, London SW6 1PN, United Kingdom",51.4318702,-0.1291382,SW16 1PN
Costa Coffee,Lambeth,Costa Coffee,"Unit 6, Victoria Island, London SW1V 1JT, United Kingdom",51.49501100000000,-0.143998,SW1V 1JU
Costa Coffee,Lambeth,Costa Coffee,"178 Balham High Rd, London SW12 9BW, United Kingdom",51.444139,-0.15245,SW12 9BW
Costa Coffee,Lewisham,Costa Coffee,"Lewisham Railway Station, London SE13 7RY, United Kingdom",51.46560300000000,-0.01402,SE13 7RY
Costa Coffee,Lewisham,Costa Coffee,"37-39 Lewisham Way, London SE14 6PP, United Kingdom",51.4749045,-0.0346838,SE14 6PP
Costa Coffee,Merton,Costa Coffee,"64 London Rd, Morden SM4 5BE, United Kingdom",51.4025155,-0.1942247,SM4 5BE
Costa Coffee,Merton,Costa Coffee,"unit a, Raynes Park, London SW20 8QY, United Kingdom",51.410394,-0.229954,SW20 0LT
Costa Coffee,Merton,Costa Coffee,"Next, 88 Bushey Rd, Raynes Park, London SW20 0JH, United Kingdom",51.40460000000000,-0.24027,SW20 0JH
Costa Coffee,Merton,Costa Coffee,"505, 507 Garratt Ln, London SW18 4SW, United Kingdom",51.44241300000000,-0.188219,SW18 4SW
Costa Coffee,Merton,Costa Coffee (Nelson Café),"220 Kingston Rd, London SW20 8DA, United Kingdom",51.4106727,-0.2087694,SW20 8DA
Costa Coffee,Merton,Costa Coffee,"Unit 305, Wimbledon Centre Court Shopping Centre, London SW19 5YE, United Kingdom",51.421132,-0.205693,SW19 8YE
Costa Coffee,Merton,Costa Coffee,"29 Wrythe Ln, Rosehill, Sutton, Carshalton SM5 1AG, United Kingdom",51.383405,-0.1889153,SM5 1AG
Costa Coffee,Merton,Costa Coffee,"Beverly Park, New Malden KT3 4PH, United Kingdom",51.404366,-0.243069,KT3 4PH
Costa Coffee,Merton,Costa Coffee,"Sutton Cheam, Tesco, 55 Oldfields Rd, Sutton SM1 2NB, United Kingdom",51.37503,-0.20667,SM1 2NB
Costa Coffee,Merton,Costa Coffee,"31-33 High St, Carshalton SM5 3AX, United Kingdom",51.3655693,-0.1606193,SM5 3AX
Costa Coffee,Merton,Costa Express,"702-712 Mitcham Rd, London CR0 3AB, United Kingdom",51.3908127,-0.1334843,CR0 3AB
